_id,month,town,flat_type,block,street_name,storey_range,floor_area_sqm,flat_model,lease_commence_date,remaining_lease,resale_price,address,postal,latitude,longitude
190828,2024-10,ANG MO KIO,3 ROOM,230,ANG MO KIO AVE 3,07 TO 09,67.0,New Generation,1978,52 years 05 months,408000.0,230 ANG MO KIO AVE 3,560230,1.36885445228086,103.837896397823
190829,2024-10,ANG MO KIO,3 ROOM,611,ANG MO KIO AVE 5,07 TO 09,67.0,New Generation,1980,54 years 10 months,410000.0,611 ANG MO KIO AVE 5,560611,1.37829205175133,103.83725190016
190830,2024-10,ANG MO KIO,4 ROOM,221,ANG MO KIO AVE 1,07 TO 09,102.0,Model A,1993,67 years 08 months,620000.0,221 ANG MO KIO AVE 1,560221,1.36637938294119,103.839482297653
190831,2024-10,ANG MO KIO,4 ROOM,511,ANG MO KIO AVE 8,01 TO 03,91.0,New Generation,1980,54 years 11 months,535000.0,511 ANG MO KIO AVE 8,560511,1.37356775015905,103.850154125155
190832,2024-10,ANG MO KIO,5 ROOM,506,ANG MO KIO AVE 8,04 TO 06,136.0,Adjoined flat,1980,55 years,900000.0,506 ANG MO KIO AVE 8,560506,1.37440041920745,103.84893617353
190833,2024-10,ANG MO KIO,5 ROOM,455B,ANG MO KIO ST 44,25 TO 27,113.0,Improved,2018,92 years 06 months,1170000.0,455B ANG MO KIO ST 44,562455,1.36833017912554,103.858495667837
190834,2024-10,BEDOK,3 ROOM,502,BEDOK NTH ST 3,04 TO 06,59.0,Improved,1978,52 years 08 months,350500.0,502 BEDOK NTH ST 3,460502,1.331245062192,103.931244293846
190835,2024-10,BEDOK,3 ROOM,71,BEDOK STH RD,01 TO 03,67.0,New Generation,1978,52 years 05 months,405000.0,71 BEDOK STH RD,460071,1.32041601736618,103.942732310081
190836,2024-10,BEDOK,4 ROOM,426,BEDOK NTH RD,10 TO 12,92.0,New Generation,1979,53 years 05 months,538000.0,426 BEDOK NTH RD,460426,1.32980063275837,103.928985674792
190837,2024-10,BEDOK,4 ROOM,44,BEDOK STH RD,10 TO 12,84.0,Improved,1977,52 years 01 month,475000.0,44 BEDOK STH RD,460044,1.3211155478057,103.941675526083
190838,2024-10,BISHAN,3 ROOM,176,BISHAN ST 13,07 TO 09,64.0,Simplified,1988,62 years 08 months,530000.0,176 BISHAN ST 13,570176,1.34814264813403,103.853911806894
190839,2024-10,BISHAN,4 ROOM,124,BISHAN ST 12,07 TO 09,83.0,Simplified,1987,61 years 09 months,716000.0,124 BISHAN ST 12,570124,1.34647605091488,103.85127373178
190840,2024-10,BUKIT BATOK,3 ROOM,242,BT BATOK EAST AVE 5,10 TO 12,69.0,New Generation,1985,60 years 04 months,428000.0,242 BT BATOK EAST AVE 5,650242,1.35095950808957,103.756233418128
190841,2024-10,BUKIT BATOK,4 ROOM,293D,BT BATOK ST 21,25 TO 27,93.0,Model A,2019,93 years 05 months,788000.0,293D BT BATOK ST 21,654293,1.34502077023724,103.755285866092
190842,2024-10,BUKIT BATOK,4 ROOM,435B,BT BATOK WEST AVE 5,13 TO 15,93.0,Model A,2020,94 years 05 months,644000.0,435B BT BATOK WEST AVE 5,652435,1.35882272265832,103.740404826736
190843,2024-10,BUKIT BATOK,4 ROOM,461A,BT BATOK WEST AVE 8,13 TO 15,93.0,Model A,2019,94 years 01 month,680000.0,461A BT BATOK WEST AVE 8,651461,1.35492017502696,103.739973160067
190844,2024-10,BUKIT BATOK,5 ROOM,102,BT BATOK WEST AVE 6,13 TO 15,150.0,Model A,1985,59 years 10 months,825000.0,102 BT BATOK WEST AVE 6,650102,1.34745833930547,103.747473341114
190845,2024-10,BUKIT BATOK,5 ROOM,442A,BT BATOK WEST AVE 8,13 TO 15,112.0,Improved,2019,93 years 07 months,830000.0,442A BT BATOK WEST AVE 8,651442,1.35660480719736,103.738628185843
190846,2024-10,BUKIT BATOK,EXECUTIVE,140,BT BATOK ST 11,04 TO 06,155.0,Maisonette,1984,59 years 03 months,912000.0,140 BT BATOK ST 11,650140,1.35076586646897,103.74385553747
190847,2024-10,BUKIT MERAH,3 ROOM,24,BEO CRES,07 TO 09,59.0,Standard,1971,45 years 11 months,380000.0,24 BEO CRES,160024,1.28852535171166,103.828458597142
190848,2024-10,BUKIT MERAH,3 ROOM,96B,HENDERSON RD,01 TO 03,68.0,Model A,2019,93 years 09 months,690000.0,96B HENDERSON RD,152096,1.288056640159,103.821285332505
190849,2024-10,BUKIT MERAH,4 ROOM,70A,TELOK BLANGAH HTS,07 TO 09,93.0,Model A,2017,91 years 09 months,928888.0,70A TELOK BLANGAH HTS,101070,1.27637530976147,103.81137191061
190850,2024-10,BUKIT PANJANG,3 ROOM,251,BANGKIT RD,07 TO 09,73.0,Model A,1988,63 years 04 months,430000.0,251 BANGKIT RD,670251,1.38030045457366,103.774174995217
190851,2024-10,BUKIT PANJANG,3 ROOM,220,PETIR RD,07 TO 09,73.0,Model A,1989,63 years 05 months,415000.0,220 PETIR RD,670220,1.37452837023545,103.772867119001
190852,2024-10,BUKIT PANJANG,4 ROOM,407,FAJAR RD,01 TO 03,84.0,Simplified,1989,63 years 05 months,442888.0,407 FAJAR RD,670407,1.38144471081245,103.768305890206
190853,2024-10,BUKIT PANJANG,5 ROOM,622,SENJA RD,16 TO 18,111.0,Improved,2001,76 years 04 months,688888.0,622 SENJA RD,670622,1.38593252527851,103.761420950075
190854,2024-10,CENTRAL AREA,3 ROOM,9,SELEGIE RD,16 TO 18,56.0,Standard,1974,48 years 04 months,430000.0,9 SELEGIE RD,180009,1.30346096156272,103.850709313633
190855,2024-10,CHOA CHU KANG,3 ROOM,2,TECK WHYE AVE,01 TO 03,74.0,Model A,1984,59 years 02 months,420000.0,2 TECK WHYE AVE,680002,1.38194642527068,103.751888178683
190856,2024-10,CHOA CHU KANG,4 ROOM,682,CHOA CHU KANG CRES,04 TO 06,106.0,Premium Apartment,1999,74 years 02 months,533000.0,682 CHOA CHU KANG CRES,680682,1.4025105391984,103.745291155566
190857,2024-10,CHOA CHU KANG,4 ROOM,219,CHOA CHU KANG CTRL,07 TO 09,106.0,Model A,1990,64 years 06 months,548888.0,219 CHOA CHU KANG CTRL,680219,1.38251524796551,103.745366857118
190858,2024-10,CHOA CHU KANG,4 ROOM,226,CHOA CHU KANG CTRL,04 TO 06,105.0,Model A,1993,67 years 10 months,538000.0,226 CHOA CHU KANG CTRL,680226,1.38115995023886,103.745292702375
190859,2024-10,CHOA CHU KANG,4 ROOM,702,CHOA CHU KANG ST 53,04 TO 06,108.0,Model A,1995,69 years 08 months,495000.0,702 CHOA CHU KANG ST 53,680702,1.39179994537682,103.745621182307
190860,2024-10,CHOA CHU KANG,5 ROOM,808D,CHOA CHU KANG AVE 1,01 TO 03,112.0,Improved,2017,91 years 08 months,600000.0,808D CHOA CHU KANG AVE 1,684808,1.37488445323866,103.745409019573
190861,2024-10,CHOA CHU KANG,5 ROOM,688A,CHOA CHU KANG DR,01 TO 03,110.0,Improved,2002,76 years 06 months,540000.0,688A CHOA CHU KANG DR,681688,1.40396387456119,103.750566306243
190862,2024-10,CLEMENTI,3 ROOM,339,CLEMENTI AVE 5,10 TO 12,67.0,New Generation,1979,54 years 05 months,420000.0,339 CLEMENTI AVE 5,120339,1.31966316716168,103.769139839665
190863,2024-10,GEYLANG,4 ROOM,82A,CIRCUIT RD,07 TO 09,93.0,Model A,2020,94 years 09 months,970000.0,82A CIRCUIT RD,371082,1.32428910717838,103.889760526482
190864,2024-10,HOUGANG,5 ROOM,980B,BUANGKOK CRES,04 TO 06,110.0,Improved,2003,77 years 09 months,688000.0,980B BUANGKOK CRES,532980,1.37972529696275,103.881133269191
190865,2024-10,HOUGANG,EXECUTIVE,834,HOUGANG CTRL,01 TO 03,156.0,Maisonette,1992,66 years 11 months,968000.0,834 HOUGANG CTRL,530834,1.36987840279112,103.889859718034
190866,2024-10,JURONG EAST,3 ROOM,240A,JURONG EAST AVE 1,19 TO 21,68.0,Model A,2020,94 years 09 months,553000.0,240A JURONG EAST AVE 1,601240,1.3410034994554,103.742339009867
190867,2024-10,JURONG EAST,3 ROOM,205,JURONG EAST ST 21,07 TO 09,67.0,New Generation,1983,57 years 09 months,396888.0,205 JURONG EAST ST 21,600205,1.33756440098279,103.742881138117
190868,2024-10,JURONG EAST,3 ROOM,243,JURONG EAST ST 24,10 TO 12,67.0,New Generation,1983,57 years 06 months,383000.0,243 JURONG EAST ST 24,600243,1.34206406490644,103.743306656115
190869,2024-10,JURONG EAST,4 ROOM,314,JURONG EAST ST 32,04 TO 06,104.0,Model A,1984,58 years 11 months,565000.0,314 JURONG EAST ST 32,600314,1.34665351063977,103.733275157188
190870,2024-10,JURONG WEST,3 ROOM,175,BOON LAY DR,10 TO 12,59.0,Improved,1978,52 years 11 months,308000.0,175 BOON LAY DR,640175,1.34668916681369,103.709485323529
190871,2024-10,JURONG WEST,3 ROOM,181A,BOON LAY DR,16 TO 18,68.0,Model A,2014,88 years 09 months,470000.0,181A BOON LAY DR,641181,1.34849083792572,103.708097262621
190872,2024-10,JURONG WEST,4 ROOM,183A,BOON LAY AVE,10 TO 12,92.0,Model A,2015,89 years 05 months,611700.0,183A BOON LAY AVE,641183,1.34861794801802,103.709737700176
190873,2024-10,JURONG WEST,5 ROOM,272B,JURONG WEST ST 24,04 TO 06,113.0,Premium Apartment,2003,78 years 02 months,531000.0,272B JURONG WEST ST 24,642272,1.3505208170253,103.704862240601
190874,2024-10,JURONG WEST,5 ROOM,661A,JURONG WEST ST 64,10 TO 12,110.0,Improved,2001,76 years,685000.0,661A JURONG WEST ST 64,641661,1.33567944605321,103.705141174139
190875,2024-10,JURONG WEST,5 ROOM,743,JURONG WEST ST 73,10 TO 12,122.0,Improved,1992,67 years,615000.0,743 JURONG WEST ST 73,640743,1.34729336857901,103.699193660942
190876,2024-10,KALLANG/WHAMPOA,3 ROOM,123,MCNAIR RD,13 TO 15,64.0,Simplified,1987,61 years 08 months,515000.0,123 MCNAIR RD,320123,1.31844233518161,103.856349883909
190877,2024-10,PASIR RIS,5 ROOM,530A,PASIR RIS DR 1,01 TO 03,105.0,DBSS,2015,89 years 09 months,860000.0,530A PASIR RIS DR 1,511530,1.37114053931458,103.949850548422
190878,2024-10,PASIR RIS,EXECUTIVE,132,PASIR RIS ST 11,01 TO 03,149.0,Apartment,1994,69 years 02 months,840000.0,132 PASIR RIS ST 11,510132,1.36623282835828,103.956086878047
190879,2024-10,PUNGGOL,2 ROOM,233A,SUMANG LANE,07 TO 09,47.0,Model A,2018,93 years 03 months,376000.0,233A SUMANG LANE,821233,1.40158066096097,103.890310335343
190880,2024-10,PUNGGOL,3 ROOM,664A,PUNGGOL DR,04 TO 06,65.0,Model A,2016,90 years 10 months,500000.0,664A PUNGGOL DR,821664,1.39943218267508,103.917510729317
190881,2024-10,PUNGGOL,4 ROOM,210B,PUNGGOL PL,07 TO 09,92.0,Model A,2014,89 years 04 months,625000.0,210B PUNGGOL PL,822210,1.40018624466167,103.900097012053
190882,2024-10,PUNGGOL,5 ROOM,130,EDGEDALE PLAINS,04 TO 06,111.0,Premium Apartment,2003,78 years 03 months,600000.0,130 EDGEDALE PLAINS,820130,1.39317299390016,103.910055332313
190883,2024-10,PUNGGOL,5 ROOM,173A,PUNGGOL FIELD,01 TO 03,110.0,Improved,2003,78 years 04 months,628000.0,173A PUNGGOL FIELD,821173,1.39701308622338,103.909354092412
190884,2024-10,PUNGGOL,5 ROOM,226A,SUMANG LANE,10 TO 12,114.0,Premium Apartment,2018,92 years 07 months,788888.0,226A SUMANG LANE,821226,1.40272812898156,103.893101300132
190885,2024-10,PUNGGOL,5 ROOM,313C,SUMANG LINK,07 TO 09,112.0,Improved,2015,89 years 09 months,850000.0,313C SUMANG LINK,823313,1.41062885103467,103.901551852458
190886,2024-10,PUNGGOL,5 ROOM,322D,SUMANG WALK,04 TO 06,116.0,Premium Apartment,2019,93 years 07 months,868000.0,322D SUMANG WALK,824322,1.41003628713147,103.896380211581
190887,2024-10,QUEENSTOWN,2 ROOM,112,C'WEALTH CRES,04 TO 06,47.0,Standard,1969,43 years 05 months,285888.0,112 C'WEALTH CRES,140112,1.30661660830307,103.798183841941
190888,2024-10,QUEENSTOWN,3 ROOM,50,C'WEALTH DR,07 TO 09,63.0,Model A,2015,89 years 06 months,692000.0,50 C'WEALTH DR,142050,1.30112909158394,103.797123032464
190889,2024-10,QUEENSTOWN,3 ROOM,1,DOVER RD,01 TO 03,65.0,Improved,1975,49 years 11 months,368000.0,1 DOVER RD,130001,1.3025299473495,103.783271662459
190890,2024-10,QUEENSTOWN,3 ROOM,2,GHIM MOH RD,01 TO 03,65.0,Improved,1976,50 years 11 months,372000.0,2 GHIM MOH RD,270002,1.31237872986354,103.786971451599
190891,2024-10,SEMBAWANG,2 ROOM,365A,SEMBAWANG CRES,07 TO 09,38.0,Model A,2019,93 years 07 months,360888.0,365A SEMBAWANG CRES,751365,1.4440528137681,103.817027689848
190892,2024-10,SEMBAWANG,4 ROOM,131A,CANBERRA CRES,07 TO 09,92.0,Model A,2020,95 years,765000.0,131A CANBERRA CRES,751131,1.44372597469524,103.831029801721
190893,2024-10,SEMBAWANG,4 ROOM,101A,CANBERRA ST,01 TO 03,93.0,Model A,2020,95 years 04 months,580000.0,101A CANBERRA ST,751101,1.45173892803325,103.83045410628
190894,2024-10,SEMBAWANG,4 ROOM,107B,CANBERRA ST,13 TO 15,93.0,Model A,2018,92 years 11 months,660000.0,107B CANBERRA ST,752107,1.44916516333167,103.833497265983
190895,2024-10,SENGKANG,4 ROOM,329B,ANCHORVALE ST,10 TO 12,93.0,Model A,2015,89 years 11 months,695000.0,329B ANCHORVALE ST,542329,1.39576281508857,103.889466805657
190896,2024-10,SENGKANG,4 ROOM,162A,RIVERVALE CRES,13 TO 15,93.0,Model A,2017,91 years 09 months,659888.0,162A RIVERVALE CRES,541162,1.39035961258595,103.907636739734
190897,2024-10,SENGKANG,4 ROOM,185C,RIVERVALE CRES,10 TO 12,91.0,Model A2,2000,75 years 04 months,563888.0,185C RIVERVALE CRES,543185,1.39317369502634,103.906494405169
190898,2024-10,SENGKANG,4 ROOM,458A,SENGKANG WEST RD,01 TO 03,93.0,Model A,2020,95 years 01 month,630000.0,458A SENGKANG WEST RD,791458,1.39296840561775,103.869572197299
190899,2024-10,SENGKANG,5 ROOM,293A,COMPASSVALE CRES,10 TO 12,113.0,Improved,2016,91 years 03 months,808000.0,293A COMPASSVALE CRES,541293,1.39653303935383,103.895867598027
190900,2024-10,SENGKANG,5 ROOM,415C,FERNVALE LINK,16 TO 18,113.0,Improved,2016,90 years 05 months,768888.0,415C FERNVALE LINK,793415,1.38931984965925,103.88050116533
190901,2024-10,SENGKANG,5 ROOM,158A,RIVERVALE CRES,07 TO 09,111.0,Premium Apartment,2003,78 years 03 months,630000.0,158A RIVERVALE CRES,541158,1.38872018812525,103.906869059805
190902,2024-10,SENGKANG,EXECUTIVE,122C,SENGKANG EAST WAY,10 TO 12,131.0,Apartment,2000,74 years 10 months,795000.0,122C SENGKANG EAST WAY,543122,1.38750850228857,103.906143768947
190903,2024-10,TAMPINES,3 ROOM,277,TAMPINES ST 22,04 TO 06,74.0,Model A,1985,59 years 06 months,435000.0,277 TAMPINES ST 22,520277,1.34727819641372,103.951193517105
190904,2024-10,TAMPINES,4 ROOM,151,SIMEI ST 1,04 TO 06,84.0,Simplified,1988,62 years 04 months,575000.0,151 SIMEI ST 1,520151,1.34575482659138,103.957268859643
190905,2024-10,TAMPINES,4 ROOM,140,TAMPINES ST 12,01 TO 03,93.0,New Generation,1984,59 years 04 months,540000.0,140 TAMPINES ST 12,520140,1.3477319115079,103.94412402405
190906,2024-10,TAMPINES,4 ROOM,318,TAMPINES ST 33,04 TO 06,108.0,Model A,1995,70 years,600000.0,318 TAMPINES ST 33,520318,1.35146093987752,103.956074916044
190907,2024-10,TAMPINES,4 ROOM,865,TAMPINES ST 83,04 TO 06,104.0,Model A,1989,63 years 08 months,605000.0,865 TAMPINES ST 83,520865,1.35389242521044,103.934251462733
190908,2024-10,TAMPINES,EXECUTIVE,892,TAMPINES AVE 8,04 TO 06,144.0,Maisonette,1997,71 years 04 months,930000.0,892 TAMPINES AVE 8,520892,1.34901282859006,103.929242816227
190909,2024-10,TAMPINES,EXECUTIVE,329,TAMPINES ST 32,01 TO 03,148.0,Apartment,1995,70 years 04 months,848888.0,329 TAMPINES ST 32,520329,1.35335552120961,103.958728583436
190910,2024-10,TAMPINES,EXECUTIVE,740,TAMPINES ST 72,01 TO 03,141.0,Apartment,1997,72 years 01 month,835000.0,740 TAMPINES ST 72,520740,1.35937096824888,103.932812069104
190911,2024-10,TOA PAYOH,3 ROOM,126,LOR 1 TOA PAYOH,10 TO 12,67.0,Improved,1970,44 years 05 months,418000.0,126 LOR 1 TOA PAYOH,310126,1.33781465652998,103.84513085219
190912,2024-10,TOA PAYOH,4 ROOM,259,KIM KEAT AVE,07 TO 09,104.0,Model A,1989,63 years 06 months,680000.0,259 KIM KEAT AVE,310259,1.33389588710225,103.857558824931
190913,2024-10,TOA PAYOH,4 ROOM,14,LOR 7 TOA PAYOH,01 TO 03,104.0,Model A,1998,72 years 10 months,710000.0,14 LOR 7 TOA PAYOH,310014,1.33666896706719,103.858353616452
190914,2024-10,WOODLANDS,4 ROOM,34,MARSILING DR,04 TO 06,98.0,New Generation,1978,53 years 04 months,432000.0,34 MARSILING DR,730034,1.44398788887815,103.772009513931
190915,2024-10,WOODLANDS,4 ROOM,424,WOODLANDS ST 41,04 TO 06,100.0,Model A,1997,71 years 09 months,518000.0,424 WOODLANDS ST 41,730424,1.42728730939008,103.774859398322
190916,2024-10,WOODLANDS,5 ROOM,876,WOODLANDS AVE 9,10 TO 12,121.0,Improved,1996,70 years 09 months,640888.0,876 WOODLANDS AVE 9,730876,1.44479630092329,103.790602761905
190917,2024-10,WOODLANDS,5 ROOM,747,WOODLANDS CIRCLE,01 TO 03,122.0,Improved,1998,72 years 07 months,635000.0,747 WOODLANDS CIRCLE,730747,1.44317276054403,103.795008213524
190918,2024-10,WOODLANDS,5 ROOM,552,WOODLANDS DR 44,01 TO 03,120.0,Improved,2000,74 years 06 months,625000.0,552 WOODLANDS DR 44,730552,1.43185685578494,103.79530588033
190919,2024-10,WOODLANDS,5 ROOM,694A,WOODLANDS DR 62,04 TO 06,113.0,Improved,2018,93 years,738000.0,694A WOODLANDS DR 62,731694,1.43905183955493,103.804395663183
190920,2024-10,WOODLANDS,5 ROOM,655,WOODLANDS RING RD,04 TO 06,121.0,Improved,1998,72 years 07 months,670000.0,655 WOODLANDS RING RD,730655,1.43741404509878,103.798257574917
190921,2024-10,WOODLANDS,EXECUTIVE,330,WOODLANDS AVE 1,04 TO 06,176.0,Apartment,1994,68 years 05 months,950500.0,330 WOODLANDS AVE 1,730330,1.42980320697192,103.778590443657
190828,2024-10,ANG MO KIO,3 ROOM,201,ANG MO KIO AVE 3,01 TO 03,67.0,New Generation,1977,51 years 08 months,425000.0,201 ANG MO KIO AVE 3,560201,1.36884962699229,103.844564835127
190832,2024-10,ANG MO KIO,5 ROOM,437,ANG MO KIO AVE 10,13 TO 15,119.0,Improved,1979,53 years 04 months,762888.0,437 ANG MO KIO AVE 10,560437,1.36720027552413,103.853247443819
190835,2024-10,BEDOK,3 ROOM,410,BEDOK NTH AVE 2,10 TO 12,68.0,New Generation,1980,54 years 07 months,455000.0,410 BEDOK NTH AVE 2,460410,1.32788785914047,103.931835804463
190836,2024-10,BEDOK,3 ROOM,420,BEDOK NTH ST 1,01 TO 03,82.0,New Generation,1979,53 years 04 months,480000.0,420 BEDOK NTH ST 1,460420,1.32774467875638,103.928874390405
190839,2024-10,BEDOK,4 ROOM,102,BEDOK NTH AVE 4,01 TO 03,91.0,New Generation,1977,51 years 11 months,500000.0,102 BEDOK NTH AVE 4,460102,1.33390654765002,103.937458398204
190841,2024-10,BEDOK,4 ROOM,34,BEDOK STH AVE 2,07 TO 09,90.0,Improved,1977,52 years,480888.0,34 BEDOK STH AVE 2,460034,1.32205652925918,103.93835472666
190843,2024-10,BEDOK,5 ROOM,805,CHAI CHEE RD,07 TO 09,126.0,Improved,1993,67 years 08 months,828000.0,805 CHAI CHEE RD,460805,1.32430604941035,103.921625366639
190844,2024-10,BEDOK,EXECUTIVE,719,BEDOK RESERVOIR RD,04 TO 06,148.0,Maisonette,1984,58 years 04 months,920000.0,719 BEDOK RESERVOIR RD,470719,1.33641984694912,103.92483267275
190845,2024-10,BEDOK,EXECUTIVE,160,BEDOK STH AVE 3,01 TO 03,146.0,Maisonette,1986,60 years 08 months,928888.0,160 BEDOK STH AVE 3,460160,1.31925982986372,103.945202877473
190848,2024-10,BISHAN,4 ROOM,239,BISHAN ST 22,07 TO 09,105.0,Model A,1992,66 years 11 months,818000.0,239 BISHAN ST 22,570239,1.36042894626787,103.8447773181
190849,2024-10,BUKIT BATOK,2 ROOM,438C,BT BATOK WEST AVE 8,10 TO 12,47.0,Model A,2020,94 years 05 months,372000.0,438C BT BATOK WEST AVE 8,653438,1.35775731757846,103.739408616622
190851,2024-10,BUKIT BATOK,3 ROOM,248,BT BATOK EAST AVE 5,01 TO 03,73.0,Model A,1985,59 years 11 months,420000.0,248 BT BATOK EAST AVE 5,650248,1.35025884075015,103.756604724025
190852,2024-10,BUKIT BATOK,3 ROOM,219,BT BATOK ST 21,07 TO 09,69.0,New Generation,1985,59 years 06 months,400000.0,219 BT BATOK ST 21,650219,1.34720729813155,103.754999726682
190853,2024-10,BUKIT BATOK,3 ROOM,343,BT BATOK ST 34,04 TO 06,73.0,Model A,1987,61 years 06 months,410000.0,343 BT BATOK ST 34,650343,1.36238776835658,103.749167455431
190854,2024-10,BUKIT BATOK,4 ROOM,259,BT BATOK EAST AVE 4,04 TO 06,93.0,New Generation,1985,59 years 10 months,531888.0,259 BT BATOK EAST AVE 4,650259,1.35085859711904,103.759761122934
190858,2024-10,BUKIT BATOK,4 ROOM,112,BT BATOK WEST AVE 6,01 TO 03,104.0,Model A,1984,59 years 02 months,545000.0,112 BT BATOK WEST AVE 6,650112,1.34817353357762,103.745025213312
190859,2024-10,BUKIT BATOK,4 ROOM,194A,BT BATOK WEST AVE 6,10 TO 12,92.0,Premium Apartment,2017,91 years 10 months,700000.0,194A BT BATOK WEST AVE 6,651194,1.34468050128788,103.7455138661
190861,2024-10,BUKIT BATOK,4 ROOM,439C,BT BATOK WEST AVE 8,04 TO 06,93.0,Model A,2020,94 years 06 months,630000.0,439C BT BATOK WEST AVE 8,653439,1.35762861295926,103.738857524407
190862,2024-10,BUKIT BATOK,5 ROOM,392,BT BATOK WEST AVE 5,13 TO 15,118.0,Improved,2004,79 years 02 months,730000.0,392 BT BATOK WEST AVE 5,650392,1.36586608373138,103.753323280718
190864,2024-10,BUKIT BATOK,5 ROOM,452A,BT BATOK WEST AVE 6,13 TO 15,113.0,Improved,2019,93 years 06 months,850000.0,452A BT BATOK WEST AVE 6,651452,1.35265343215969,103.742573096086
190869,2024-10,BUKIT MERAH,3 ROOM,47,TELOK BLANGAH DR,04 TO 06,76.0,Improved,1976,50 years 04 months,382000.0,47 TELOK BLANGAH DR,100047,1.27204427103763,103.810096953624
190870,2024-10,BUKIT MERAH,4 ROOM,9B,BOON TIONG RD,37 TO 39,92.0,Model A,2016,90 years 05 months,1320000.0,9B BOON TIONG RD,163009,1.28681417822795,103.828928312802
190871,2024-10,BUKIT MERAH,4 ROOM,18,CANTONMENT CL,04 TO 06,90.0,Model A,2002,77 years 04 months,850000.0,18 CANTONMENT CL,80018,1.27390144581321,103.839417299226
190872,2024-10,BUKIT MERAH,4 ROOM,121A,KIM TIAN PL,28 TO 30,101.0,Model A,2001,75 years 05 months,1000000.0,121A KIM TIAN PL,161121,1.28265068056025,103.828178493453
190875,2024-10,BUKIT PANJANG,3 ROOM,131,CASHEW RD,10 TO 12,73.0,Model A,1988,62 years 07 months,428000.0,131 CASHEW RD,670131,1.37457987035667,103.770871763692
190878,2024-10,BUKIT PANJANG,4 ROOM,629,SENJA RD,22 TO 24,90.0,Premium Apartment,2004,79 years 02 months,588000.0,629 SENJA RD,670629,1.38652802373559,103.759278980746
190879,2024-10,BUKIT PANJANG,5 ROOM,153,GANGSA RD,01 TO 03,121.0,Improved,1998,73 years 01 month,653000.0,153 GANGSA RD,670153,1.37497216679058,103.765518982199
190880,2024-10,BUKIT PANJANG,5 ROOM,203,PETIR RD,07 TO 09,122.0,Improved,1988,63 years 03 months,630000.0,203 PETIR RD,670203,1.37309168822619,103.775565919483
190882,2024-10,BUKIT PANJANG,5 ROOM,627,SENJA RD,16 TO 18,110.0,Premium Apartment,2004,79 years 02 months,685000.0,627 SENJA RD,670627,1.38553502172905,103.759378313644
190883,2024-10,BUKIT PANJANG,EXECUTIVE,155,GANGSA RD,04 TO 06,140.0,Apartment,1998,73 years 03 months,838000.0,155 GANGSA RD,670155,1.37531520951441,103.765028861819
190886,2024-10,CHOA CHU KANG,4 ROOM,485,CHOA CHU KANG AVE 5,13 TO 15,102.0,Model A,1999,73 years 10 months,513000.0,485 CHOA CHU KANG AVE 5,680485,1.37499843819864,103.737744294777
190890,2024-10,CHOA CHU KANG,4 ROOM,354,CHOA CHU KANG CTRL,13 TO 15,105.0,Model A,1993,67 years 09 months,578000.0,354 CHOA CHU KANG CTRL,680354,1.38264543801157,103.743561079684
190893,2024-10,CHOA CHU KANG,5 ROOM,430,CHOA CHU KANG AVE 4,01 TO 03,124.0,Improved,1993,67 years 09 months,628000.0,430 CHOA CHU KANG AVE 4,680430,1.38391802750636,103.741090395244
190894,2024-10,CHOA CHU KANG,5 ROOM,464,CHOA CHU KANG AVE 4,01 TO 03,123.0,Premium Apartment,2000,74 years 06 months,585000.0,464 CHOA CHU KANG AVE 4,680464,1.37691411063327,103.735857454273
190897,2024-10,CLEMENTI,4 ROOM,311B,CLEMENTI AVE 4,34 TO 36,80.0,DBSS,2014,89 years 04 months,995000.0,311B CLEMENTI AVE 4,122311,1.31944669077178,103.765649446368
190900,2024-10,GEYLANG,4 ROOM,5,HAIG RD,04 TO 06,92.0,New Generation,1976,50 years 10 months,580000.0,5 HAIG RD,430005,1.31258917369124,103.896591193187
190901,2024-10,GEYLANG,4 ROOM,346,UBI AVE 1,01 TO 03,84.0,Simplified,1986,60 years 06 months,520000.0,346 UBI AVE 1,400346,1.32598165523671,103.89967337593
190902,2024-10,HOUGANG,4 ROOM,453,HOUGANG AVE 10,07 TO 09,104.0,Model A,1992,66 years 11 months,680000.0,453 HOUGANG AVE 10,530453,1.3784780458325,103.895891713359
190903,2024-10,HOUGANG,4 ROOM,680,HOUGANG AVE 8,01 TO 03,104.0,Model A,1987,61 years 04 months,575000.0,680 HOUGANG AVE 8,530680,1.3719503407429,103.88531934969
190905,2024-10,HOUGANG,5 ROOM,997B,BUANGKOK CRES,13 TO 15,113.0,Improved,2018,93 years 03 months,765000.0,997B BUANGKOK CRES,532997,1.38590156781199,103.8813870478
190906,2024-10,HOUGANG,5 ROOM,460,HOUGANG AVE 10,01 TO 03,123.0,Improved,1992,66 years 11 months,725000.0,460 HOUGANG AVE 10,530460,1.3732611475703,103.894631713049
190910,2024-10,JURONG EAST,3 ROOM,208,JURONG EAST ST 21,01 TO 03,67.0,New Generation,1982,57 years 04 months,420000.0,208 JURONG EAST ST 21,600208,1.33843639958331,103.742666850845
190912,2024-10,JURONG EAST,3 ROOM,306,JURONG EAST ST 32,07 TO 09,68.0,New Generation,1983,58 years 01 month,398000.0,306 JURONG EAST ST 32,600306,1.34607046577403,103.735252691468
190914,2024-10,JURONG EAST,5 ROOM,238,JURONG EAST ST 21,16 TO 18,120.0,Improved,1982,57 years,705000.0,238 JURONG EAST ST 21,600238,1.34071930674982,103.74056288551
190915,2024-10,JURONG EAST,5 ROOM,305,JURONG EAST ST 32,07 TO 09,126.0,Improved,1983,57 years 04 months,610000.0,305 JURONG EAST ST 32,600305,1.34543656763546,103.735240571701
190918,2024-10,JURONG WEST,3 ROOM,527,JURONG WEST ST 52,01 TO 03,67.0,New Generation,1983,57 years 11 months,385000.0,527 JURONG WEST ST 52,640527,1.34788417193502,103.716417389865
190920,2024-10,JURONG WEST,4 ROOM,365,CORPORATION DR,04 TO 06,102.0,Model A,1997,71 years 11 months,520000.0,365 CORPORATION DR,610365,1.33772592715602,103.720184719217
190921,2024-10,JURONG WEST,4 ROOM,731,JURONG WEST ST 72,10 TO 12,104.0,Model A,1990,65 years 04 months,500000.0,731 JURONG WEST ST 72,640731,1.34547702861433,103.698587048618
190922,2024-10,JURONG WEST,4 ROOM,346,KANG CHING RD,01 TO 03,101.0,Model A,1997,71 years 08 months,540000.0,346 KANG CHING RD,610346,1.34023656666002,103.720885227164
190923,2024-10,JURONG WEST,5 ROOM,685C,JURONG WEST CTRL 1,04 TO 06,111.0,Premium Apartment,2000,74 years 11 months,615000.0,685C JURONG WEST CTRL 1,643685,1.34255459489451,103.704167639495
190926,2024-10,JURONG WEST,5 ROOM,663D,JURONG WEST ST 65,13 TO 15,110.0,Improved,2000,74 years 11 months,660000.0,663D JURONG WEST ST 65,644663,1.33884440739716,103.702339448465
190928,2024-10,JURONG WEST,EXECUTIVE,830,JURONG WEST ST 81,04 TO 06,145.0,Apartment,1993,67 years 09 months,690000.0,830 JURONG WEST ST 81,640830,1.34533160962097,103.693436582709
190929,2024-10,KALLANG/WHAMPOA,3 ROOM,3,BEACH RD,04 TO 06,68.0,Improved,1979,54 years,460000.0,3 BEACH RD,190003,1.30418712919936,103.86519331441
190930,2024-10,KALLANG/WHAMPOA,3 ROOM,10A,BENDEMEER RD,34 TO 36,68.0,Model A,2017,92 years 03 months,838000.0,10A BENDEMEER RD,331010,1.31499138887312,103.86050538635
190932,2024-10,KALLANG/WHAMPOA,3 ROOM,685,RACE COURSE RD,10 TO 12,63.0,Simplified,1986,60 years 05 months,500000.0,685 RACE COURSE RD,210685,1.31400583508364,103.856831276139
190933,2024-10,KALLANG/WHAMPOA,3 ROOM,3,ST. GEORGE'S RD,07 TO 09,70.0,Improved,1976,50 years 08 months,450000.0,3 ST. GEORGE'S RD,320003,1.3225873518737,103.861107276991
190934,2024-10,KALLANG/WHAMPOA,4 ROOM,101,JLN RAJAH,01 TO 03,94.0,New Generation,1980,55 years 03 months,568000.0,101 JLN RAJAH,321101,1.32871478392959,103.850545321033
190935,2024-10,KALLANG/WHAMPOA,4 ROOM,26B,ST. GEORGE'S LANE,25 TO 27,92.0,Model A,2020,94 years 08 months,1135000.0,26B ST. GEORGE'S LANE,322026,1.32166862124903,103.862717909816
190936,2024-10,PASIR RIS,4 ROOM,475,PASIR RIS DR 6,07 TO 09,105.0,Model A,1990,64 years 08 months,600000.0,475 PASIR RIS DR 6,510475,1.37519773974651,103.95715537175
190937,2024-10,PASIR RIS,4 ROOM,525B,PASIR RIS ST 51,10 TO 12,93.0,Model A,2015,89 years 10 months,755000.0,525B PASIR RIS ST 51,512525,1.3695904828869,103.947455951519
190938,2024-10,PASIR RIS,4 ROOM,761,PASIR RIS ST 71,04 TO 06,106.0,Model A,1996,71 years 01 month,575000.0,761 PASIR RIS ST 71,510761,1.37610193104679,103.933867337036
190940,2024-10,PASIR RIS,5 ROOM,562,PASIR RIS ST 51,01 TO 03,123.0,Improved,1993,68 years,700000.0,562 PASIR RIS ST 51,510562,1.3675903812404,103.950281806126
190944,2024-10,PUNGGOL,3 ROOM,266C,PUNGGOL WAY,01 TO 03,67.0,Model A,2015,89 years 09 months,480000.0,266C PUNGGOL WAY,823266,1.40515419785373,103.897805221585
190945,2024-10,PUNGGOL,3 ROOM,327B,SUMANG WALK,10 TO 12,68.0,Model A,2018,93 years 02 months,515000.0,327B SUMANG WALK,822327,1.41225569065015,103.899575835016
190946,2024-10,PUNGGOL,4 ROOM,614B,EDGEFIELD PLAINS,16 TO 18,92.0,Model A,2012,87 years 03 months,680000.0,614B EDGEFIELD PLAINS,822614,1.40290323653965,103.910057537905
190947,2024-10,PUNGGOL,4 ROOM,204B,PUNGGOL FIELD,07 TO 09,90.0,Model A,2004,79 years 02 months,570000.0,204B PUNGGOL FIELD,822204,1.39868224502097,103.903211124105
190949,2024-10,PUNGGOL,4 ROOM,314A,PUNGGOL WAY,13 TO 15,93.0,Premium Apartment,2017,92 years,695000.0,314A PUNGGOL WAY,821314,1.40826187839775,103.898017940475
190951,2024-10,PUNGGOL,5 ROOM,682A,EDGEDALE PLAINS,10 TO 12,113.0,Premium Apartment,2018,92 years 11 months,835000.0,682A EDGEDALE PLAINS,821682,1.40354774923551,103.916291277867
190952,2024-10,PUNGGOL,5 ROOM,296,PUNGGOL CTRL,13 TO 15,110.0,Premium Apartment,2003,78 years 01 month,718000.0,296 PUNGGOL CTRL,820296,1.40158819081014,103.905265199203
190953,2024-10,PUNGGOL,5 ROOM,677C,PUNGGOL DR,16 TO 18,113.0,Premium Apartment,2016,91 years 01 month,892000.0,677C PUNGGOL DR,823677,1.40565063473796,103.909749619549
190962,2024-10,QUEENSTOWN,3 ROOM,6,HOLLAND CL,07 TO 09,65.0,Improved,1974,48 years 09 months,442000.0,6 HOLLAND CL,271006,1.30711568626095,103.795264617136
190964,2024-10,SEMBAWANG,3 ROOM,118B,CANBERRA CRES,07 TO 09,68.0,Model A,2020,94 years 09 months,502000.0,118B CANBERRA CRES,752118,1.4450285258496,103.829460415871
190965,2024-10,SEMBAWANG,3 ROOM,590A,MONTREAL LINK,10 TO 12,68.0,Model A,2015,89 years 08 months,470000.0,590A MONTREAL LINK,751590,1.45035573249189,103.826654919951
190969,2024-10,SEMBAWANG,5 ROOM,466B,SEMBAWANG DR,10 TO 12,110.0,Premium Apartment,2006,80 years 05 months,585000.0,466B SEMBAWANG DR,752466,1.45500467033158,103.813212087255
190970,2024-10,SENGKANG,2 ROOM,418A,FERNVALE LINK,22 TO 24,38.0,Model A,2018,92 years 10 months,378000.0,418A FERNVALE LINK,791418,1.39100745746343,103.879606736157
190971,2024-10,SENGKANG,3 ROOM,217B,COMPASSVALE DR,16 TO 18,68.0,Premium Apartment,2017,91 years 09 months,600000.0,217B COMPASSVALE DR,542217,1.38928033604771,103.894345637862
190972,2024-10,SENGKANG,3 ROOM,455B,SENGKANG WEST AVE,07 TO 09,68.0,Model A,2020,95 years 01 month,500000.0,455B SENGKANG WEST AVE,792455,1.39201619223955,103.870247728472
190973,2024-10,SENGKANG,4 ROOM,338C,ANCHORVALE CRES,04 TO 06,93.0,Model A,2018,92 years 08 months,600000.0,338C ANCHORVALE CRES,543338,1.40000057323035,103.890078145481
190975,2024-10,SENGKANG,4 ROOM,211B,COMPASSVALE LANE,13 TO 15,95.0,Model A,2013,87 years 05 months,685000.0,211B COMPASSVALE LANE,542211,1.38508719120599,103.898737047703
190978,2024-10,SENGKANG,4 ROOM,156,RIVERVALE CRES,04 TO 06,90.0,Model A,2005,80 years 04 months,550000.0,156 RIVERVALE CRES,540156,1.39110869598936,103.907428124115
190980,2024-10,SENGKANG,4 ROOM,458C,SENGKANG WEST RD,13 TO 15,93.0,Model A,2020,95 years,652000.0,458C SENGKANG WEST RD,793458,1.39285734486634,103.870875153546
190982,2024-10,SENGKANG,5 ROOM,299A,COMPASSVALE ST,10 TO 12,114.0,Premium Apartment,2001,76 years,660000.0,299A COMPASSVALE ST,541299,1.39624131422154,103.902632812388
190983,2024-10,SENGKANG,5 ROOM,405A,FERNVALE LANE,19 TO 21,112.0,Premium Apartment,2004,78 years 05 months,720000.0,405A FERNVALE LANE,791405,1.38882291640561,103.873859040678
190985,2024-10,SENGKANG,5 ROOM,430A,FERNVALE LINK,07 TO 09,112.0,Improved,2015,89 years 09 months,760000.0,430A FERNVALE LINK,791430,1.39387016239186,103.878517201425
190988,2024-10,SERANGOON,4 ROOM,426,SERANGOON AVE 1,10 TO 12,105.0,Model A,1988,63 years 04 months,770000.0,426 SERANGOON AVE 1,550426,1.34779505728772,103.876022094599
190989,2024-10,SERANGOON,4 ROOM,236,SERANGOON AVE 3,01 TO 03,84.0,Simplified,1985,59 years 10 months,590000.0,236 SERANGOON AVE 3,550236,1.35424006743426,103.869821831929
190990,2024-10,TAMPINES,3 ROOM,520C,TAMPINES CTRL 8,10 TO 12,61.0,DBSS,2014,88 years 10 months,640000.0,520C TAMPINES CTRL 8,523520,1.35674170789189,103.939692399456
190991,2024-10,TAMPINES,3 ROOM,161,TAMPINES ST 12,07 TO 09,74.0,Model A,1984,59 years 01 month,490000.0,161 TAMPINES ST 12,521161,1.35000084839602,103.945978324355
190993,2024-10,TAMPINES,3 ROOM,284,TAMPINES ST 22,07 TO 09,74.0,Model A,1984,58 years 10 months,460000.0,284 TAMPINES ST 22,520284,1.34910384523476,103.952628180763
190994,2024-10,TAMPINES,3 ROOM,411,TAMPINES ST 41,07 TO 09,60.0,Improved,1985,60 years 01 month,426000.0,411 TAMPINES ST 41,520411,1.35911452071564,103.946078782025
190999,2024-10,TAMPINES,5 ROOM,168D,SIMEI LANE,04 TO 06,107.0,DBSS,2011,85 years 06 months,860000.0,168D SIMEI LANE,524168,1.34285868951136,103.958258733447
191000,2024-10,TAMPINES,5 ROOM,304,TAMPINES ST 32,07 TO 09,138.0,Model A,1993,67 years 11 months,740000.0,304 TAMPINES ST 32,520304,1.35213400949386,103.956438751073
191001,2024-10,TAMPINES,5 ROOM,490B,TAMPINES ST 45,01 TO 03,126.0,Improved,1993,68 years,680000.0,490B TAMPINES ST 45,521490,1.36237689225229,103.956046631727
191006,2024-10,TOA PAYOH,3 ROOM,3,UPP ALJUNIED LANE,04 TO 06,57.0,Standard,1968,42 years 09 months,331000.0,3 UPP ALJUNIED LANE,360003,1.33399297498361,103.879892742452
191009,2024-10,WOODLANDS,3 ROOM,12,MARSILING LANE,04 TO 06,65.0,Improved,1976,50 years 06 months,333000.0,12 MARSILING LANE,730012,1.44051412860781,103.778621611934
191011,2024-10,WOODLANDS,4 ROOM,7,MARSILING DR,13 TO 15,88.0,Improved,1976,50 years 05 months,440000.0,7 MARSILING DR,730007,1.44166906487399,103.776733408183
191012,2024-10,WOODLANDS,4 ROOM,584,WOODLANDS DR 16,07 TO 09,91.0,Model A,2001,75 years 10 months,530000.0,584 WOODLANDS DR 16,730584,1.42955731375385,103.794807794419
191013,2024-10,WOODLANDS,4 ROOM,609,WOODLANDS RING RD,01 TO 03,101.0,Model A,1998,72 years 11 months,510000.0,609 WOODLANDS RING RD,730609,1.43597624869668,103.796213561468
191014,2024-10,WOODLANDS,4 ROOM,669,WOODLANDS RING RD,10 TO 12,85.0,Model A2,2000,75 years 02 months,530000.0,669 WOODLANDS RING RD,730669,1.43839759376345,103.798540260206
191015,2024-10,WOODLANDS,4 ROOM,784B,WOODLANDS RISE,07 TO 09,93.0,Model A,2018,92 years 11 months,605000.0,784B WOODLANDS RISE,732784,1.4455212234661,103.804854097797
191017,2024-10,WOODLANDS,4 ROOM,436,WOODLANDS ST 41,01 TO 03,84.0,Simplified,1996,71 years,445000.0,436 WOODLANDS ST 41,730436,1.42661624805888,103.774872341652
191022,2024-10,WOODLANDS,5 ROOM,671,WOODLANDS DR 71,07 TO 09,110.0,Improved,2000,75 years 03 months,645000.0,671 WOODLANDS DR 71,730671,1.43905964105019,103.798774829516
191024,2024-10,WOODLANDS,EXECUTIVE,142,MARSILING RD,07 TO 09,170.0,Apartment,1995,69 years 07 months,985000.0,142 MARSILING RD,730142,1.43703348852642,103.777069314339
191026,2024-10,WOODLANDS,EXECUTIVE,328,WOODLANDS ST 32,01 TO 03,163.0,Apartment,1994,68 years 07 months,920000.0,328 WOODLANDS ST 32,730328,1.43005749573809,103.779439838598
191027,2024-10,YISHUN,3 ROOM,454,YISHUN ST 41,01 TO 03,67.0,Model A,2013,87 years 11 months,427000.0,454 YISHUN ST 41,760454,1.41992025972747,103.845223000987
191028,2024-10,YISHUN,4 ROOM,112,YISHUN RING RD,10 TO 12,89.0,Simplified,1985,60 years 02 months,490000.0,112 YISHUN RING RD,760112,1.43416864539746,103.829054979214
191029,2024-10,YISHUN,4 ROOM,450,YISHUN RING RD,07 TO 09,92.0,Model A,2012,86 years 11 months,593500.0,450 YISHUN RING RD,760450,1.42204534847417,103.84402117894
191030,2024-10,YISHUN,4 ROOM,468A,YISHUN ST 43,10 TO 12,93.0,Model A,2019,94 years 03 months,620000.0,468A YISHUN ST 43,761468,1.42532389372284,103.851843638346
190829,2024-10,ANG MO KIO,3 ROOM,571,ANG MO KIO AVE 3,10 TO 12,67.0,New Generation,1979,53 years 08 months,395000.0,571 ANG MO KIO AVE 3,560571,1.37005501296043,103.85488055876
190831,2024-10,ANG MO KIO,3 ROOM,151,ANG MO KIO AVE 5,01 TO 03,68.0,New Generation,1981,55 years 04 months,392000.0,151 ANG MO KIO AVE 5,560151,1.37671105271454,103.841168190659
190833,2024-10,ANG MO KIO,4 ROOM,344,ANG MO KIO AVE 3,04 TO 06,98.0,New Generation,1978,52 years 07 months,625000.0,344 ANG MO KIO AVE 3,560344,1.36797705108684,103.849264839398
190839,2024-10,BEDOK,3 ROOM,110,BEDOK NTH RD,04 TO 06,67.0,New Generation,1977,51 years 10 months,418000.0,110 BEDOK NTH RD,460110,1.33247206352435,103.934860475522
190842,2024-10,BEDOK,3 ROOM,529,BEDOK NTH ST 3,10 TO 12,68.0,New Generation,1979,53 years 11 months,380000.0,529 BEDOK NTH ST 3,460529,1.33426946144275,103.926542284602
190843,2024-10,BEDOK,3 ROOM,703,BEDOK RESERVOIR RD,01 TO 03,68.0,New Generation,1980,55 years 02 months,402000.0,703 BEDOK RESERVOIR RD,470703,1.33716507441516,103.919893055357
190849,2024-10,BEDOK,5 ROOM,118,BEDOK NTH ST 2,16 TO 18,123.0,Standard,1978,52 years 06 months,720000.0,118 BEDOK NTH ST 2,460118,1.33043385999052,103.937481669683
190851,2024-10,BEDOK,5 ROOM,61,NEW UPP CHANGI RD,19 TO 21,118.0,Standard,1977,51 years 10 months,725000.0,61 NEW UPP CHANGI RD,461061,1.32275469870145,103.940776413808
190858,2024-10,BUKIT BATOK,3 ROOM,280,BT BATOK EAST AVE 3,01 TO 03,64.0,Simplified,1988,62 years 08 months,405000.0,280 BT BATOK EAST AVE 3,650280,1.34762239826035,103.757150072517
190861,2024-10,BUKIT BATOK,3 ROOM,233,BT BATOK EAST AVE 5,07 TO 09,67.0,New Generation,1985,59 years 08 months,410000.0,233 BT BATOK EAST AVE 5,650233,1.3488252646597,103.755127558884
190863,2024-10,BUKIT BATOK,3 ROOM,207,BT BATOK ST 21,10 TO 12,73.0,Model A,1983,57 years 11 months,440000.0,207 BT BATOK ST 21,650207,1.34624866176031,103.749382188265
190864,2024-10,BUKIT BATOK,3 ROOM,215,BT BATOK ST 21,01 TO 03,67.0,New Generation,1984,59 years 02 months,388000.0,215 BT BATOK ST 21,650215,1.34677496983575,103.753335935038
190865,2024-10,BUKIT BATOK,3 ROOM,215,BT BATOK ST 21,04 TO 06,67.0,New Generation,1984,59 years 02 months,380000.0,215 BT BATOK ST 21,650215,1.34677496983575,103.753335935038
190867,2024-10,BUKIT BATOK,3 ROOM,409,BT BATOK WEST AVE 4,07 TO 09,68.0,New Generation,1988,62 years 07 months,370000.0,409 BT BATOK WEST AVE 4,650409,1.36448899593886,103.745816406222
190874,2024-10,BUKIT BATOK,4 ROOM,189,BT BATOK WEST AVE 6,01 TO 03,99.0,Model A,1997,71 years 06 months,545000.0,189 BT BATOK WEST AVE 6,650189,1.34579573207282,103.746340146543
190883,2024-10,BUKIT MERAH,3 ROOM,128,BT MERAH VIEW,19 TO 21,65.0,Improved,1973,47 years 10 months,382000.0,128 BT MERAH VIEW,150128,1.28264675199072,103.823327111496
190890,2024-10,BUKIT MERAH,5 ROOM,113,DEPOT RD,01 TO 03,117.0,Standard,1976,51 years 02 months,690000.0,113 DEPOT RD,100113,1.28141986196531,103.807286875557
190891,2024-10,BUKIT MERAH,5 ROOM,81,REDHILL LANE,04 TO 06,129.0,Improved,1996,71 years 02 months,1160000.0,81 REDHILL LANE,150081,1.28775818263836,103.819493616875
190892,2024-10,BUKIT PANJANG,2 ROOM,547C,SEGAR RD,07 TO 09,47.0,Model A,2015,89 years 10 months,355000.0,547C SEGAR RD,673547,1.38853827277489,103.768773256544
190896,2024-10,BUKIT PANJANG,4 ROOM,620,BT PANJANG RING RD,10 TO 12,90.0,Model A,2001,76 years 01 month,508000.0,620 BT PANJANG RING RD,670620,1.38585558267615,103.761737460728
190904,2024-10,BUKIT TIMAH,5 ROOM,17,TOH YI DR,10 TO 12,122.0,Improved,1988,62 years 10 months,1238000.0,17 TOH YI DR,590017,1.33976904024065,103.772556110778
190909,2024-10,CHOA CHU KANG,4 ROOM,685C,CHOA CHU KANG CRES,01 TO 03,86.0,Model A2,2002,77 years 01 month,485000.0,685C CHOA CHU KANG CRES,683685,1.40349428170579,103.748677231954
190917,2024-10,CHOA CHU KANG,5 ROOM,815C,CHOA CHU KANG AVE 7,13 TO 15,113.0,Improved,2017,91 years 06 months,758000.0,815C CHOA CHU KANG AVE 7,683815,1.37630418227263,103.747457565703
190918,2024-10,CHOA CHU KANG,5 ROOM,676,CHOA CHU KANG CRES,04 TO 06,124.0,Premium Apartment,1999,74 years 03 months,618000.0,676 CHOA CHU KANG CRES,680676,1.40191629081901,103.746188263266
190920,2024-10,CHOA CHU KANG,EXECUTIVE,671A,CHOA CHU KANG CRES,04 TO 06,141.0,Premium Apartment,2000,74 years 05 months,715000.0,671A CHOA CHU KANG CRES,681671,1.40209862661951,103.747897404358
190921,2024-10,CLEMENTI,3 ROOM,335,CLEMENTI AVE 2,04 TO 06,67.0,New Generation,1978,53 years 02 months,420000.0,335 CLEMENTI AVE 2,120335,1.31699411182356,103.768506615632
190924,2024-10,CLEMENTI,4 ROOM,607,CLEMENTI WEST ST 1,01 TO 03,92.0,New Generation,1979,54 years 03 months,500000.0,607 CLEMENTI WEST ST 1,120607,1.30423592481834,103.76785339614
190926,2024-10,GEYLANG,3 ROOM,48,CIRCUIT RD,01 TO 03,60.0,Standard,1969,43 years 05 months,320000.0,48 CIRCUIT RD,370048,1.32541032458901,103.88565098487
190930,2024-10,HOUGANG,3 ROOM,356,HOUGANG AVE 7,01 TO 03,67.0,New Generation,1984,59 years 03 months,405000.0,356 HOUGANG AVE 7,530356,1.37259314173855,103.898813147029
190933,2024-10,HOUGANG,4 ROOM,473C,UPP SERANGOON CRES,01 TO 03,93.0,Model A,2017,91 years 09 months,605000.0,473C UPP SERANGOON CRES,533473,1.37628006481899,103.901387559
190943,2024-10,JURONG EAST,3 ROOM,253,JURONG EAST ST 24,01 TO 03,67.0,New Generation,1985,59 years 09 months,385000.0,253 JURONG EAST ST 24,600253,1.34318835786153,103.73678575382
190945,2024-10,JURONG EAST,4 ROOM,228,JURONG EAST ST 21,10 TO 12,84.0,Simplified,1987,62 years 03 months,510000.0,228 JURONG EAST ST 21,600228,1.34257472073046,103.736290436718
190949,2024-10,JURONG EAST,5 ROOM,62,TEBAN GDNS RD,04 TO 06,110.0,Improved,2003,77 years 09 months,625000.0,62 TEBAN GDNS RD,600062,1.32149903397958,103.738982186646
190952,2024-10,JURONG WEST,3 ROOM,211,BOON LAY PL,13 TO 15,65.0,Improved,1976,51 years 02 months,340000.0,211 BOON LAY PL,640211,1.34824122465841,103.7140978842
190954,2024-10,JURONG WEST,3 ROOM,531,JURONG WEST ST 52,07 TO 09,67.0,New Generation,1983,57 years 11 months,380000.0,531 JURONG WEST ST 52,640531,1.34908423801413,103.715342876347
190957,2024-10,JURONG WEST,4 ROOM,725,JURONG WEST AVE 5,04 TO 06,104.0,Model A,1989,64 years 02 months,510000.0,725 JURONG WEST AVE 5,640725,1.34545304789507,103.697715535254
190958,2024-10,JURONG WEST,4 ROOM,417,JURONG WEST ST 42,01 TO 03,84.0,Simplified,1985,60 years 03 months,435000.0,417 JURONG WEST ST 42,640417,1.35130933561361,103.727345002671
190960,2024-10,JURONG WEST,4 ROOM,730,JURONG WEST ST 72,07 TO 09,104.0,Model A,1990,65 years 02 months,535000.0,730 JURONG WEST ST 72,640730,1.34610886408457,103.698426986147
190961,2024-10,JURONG WEST,4 ROOM,739,JURONG WEST ST 73,07 TO 09,106.0,Model A,1995,69 years 09 months,512000.0,739 JURONG WEST ST 73,640739,1.34594298573858,103.700120116691
190962,2024-10,JURONG WEST,4 ROOM,817,JURONG WEST ST 81,10 TO 12,107.0,Model A,1993,68 years 01 month,513888.0,817 JURONG WEST ST 81,640817,1.34470598575848,103.695720951625
190963,2024-10,JURONG WEST,4 ROOM,945,JURONG WEST ST 91,10 TO 12,103.0,Model A,1989,63 years 10 months,498000.0,945 JURONG WEST ST 91,640945,1.34423929257627,103.690130101882
190964,2024-10,JURONG WEST,4 ROOM,950,JURONG WEST ST 91,04 TO 06,105.0,Model A,1989,63 years 08 months,510000.0,950 JURONG WEST ST 91,640950,1.3434262949173,103.690924219836
190969,2024-10,JURONG WEST,5 ROOM,662D,JURONG WEST ST 64,10 TO 12,110.0,Improved,2001,76 years 01 month,655666.0,662D JURONG WEST ST 64,644662,1.33697838675185,103.704279354428
190970,2024-10,JURONG WEST,5 ROOM,678B,JURONG WEST ST 64,04 TO 06,110.0,Premium Apartment,2008,82 years 09 months,610000.0,678B JURONG WEST ST 64,642678,1.34512819470515,103.703897417226
190973,2024-10,JURONG WEST,5 ROOM,326,TAH CHING RD,16 TO 18,119.0,Improved,1997,71 years 08 months,680000.0,326 TAH CHING RD,610326,1.33576304290578,103.722668788785
190974,2024-10,JURONG WEST,EXECUTIVE,115,HO CHING RD,16 TO 18,140.0,Apartment,1999,73 years 06 months,850000.0,115 HO CHING RD,610115,1.33367081421694,103.724659608331
190975,2024-10,JURONG WEST,EXECUTIVE,669A,JURONG WEST ST 64,04 TO 06,130.0,Apartment,2000,74 years 10 months,738000.0,669A JURONG WEST ST 64,641669,1.34289271652154,103.703136147885
190977,2024-10,JURONG WEST,EXECUTIVE,162,YUNG PING RD,04 TO 06,148.0,Apartment,1997,71 years 04 months,788000.0,162 YUNG PING RD,610162,1.32964834399546,103.722091489776
190978,2024-10,KALLANG/WHAMPOA,2 ROOM,7,JLN BATU,07 TO 09,48.0,Standard,1970,44 years 09 months,320000.0,7 JLN BATU,431007,1.30237002555566,103.88359641393
190984,2024-10,KALLANG/WHAMPOA,3 ROOM,8B,UPP BOON KENG RD,07 TO 09,70.0,Premium Apartment,2017,91 years 10 months,760000.0,8B UPP BOON KENG RD,382008,1.31234447247543,103.869898299245
190985,2024-10,KALLANG/WHAMPOA,4 ROOM,59B,GEYLANG BAHRU,07 TO 09,102.0,Model A,1998,73 years 03 months,780000.0,59B GEYLANG BAHRU,331059,1.32212605377883,103.867995537199
190989,2024-10,KALLANG/WHAMPOA,4 ROOM,8A,UPP BOON KENG RD,04 TO 06,94.0,Premium Apartment,2017,91 years 10 months,980000.0,8A UPP BOON KENG RD,381008,1.31291757072948,103.869743094328
190991,2024-10,PASIR RIS,4 ROOM,414,PASIR RIS DR 6,07 TO 09,105.0,Model A,1990,64 years 06 months,600000.0,414 PASIR RIS DR 6,510414,1.37244558096567,103.956149923828
190993,2024-10,PASIR RIS,4 ROOM,571,PASIR RIS ST 53,01 TO 03,108.0,Model A,1995,70 years 01 month,638000.0,571 PASIR RIS ST 53,510571,1.37309992739672,103.945674156701
190996,2024-10,PASIR RIS,5 ROOM,228,PASIR RIS ST 21,07 TO 09,123.0,Improved,1993,67 years 10 months,682000.0,228 PASIR RIS ST 21,510228,1.37216290593954,103.961379503001
190998,2024-10,PASIR RIS,5 ROOM,564,PASIR RIS ST 51,10 TO 12,123.0,Improved,1992,67 years 03 months,790000.0,564 PASIR RIS ST 51,510564,1.36848441086802,103.949822073989
191000,2024-10,PASIR RIS,EXECUTIVE,247,PASIR RIS ST 21,10 TO 12,149.0,Apartment,1993,67 years 10 months,769000.0,247 PASIR RIS ST 21,510247,1.37073379068476,103.96245801481
191005,2024-10,PUNGGOL,4 ROOM,662B,EDGEDALE PLAINS,10 TO 12,92.0,Premium Apartment,2017,91 years 08 months,690000.0,662B EDGEDALE PLAINS,822662,1.40172153675655,103.918690999509
191007,2024-10,PUNGGOL,4 ROOM,306D,PUNGGOL DR,10 TO 12,96.0,Premium Apartment,2012,86 years 10 months,743888.0,306D PUNGGOL DR,824306,1.40608143462906,103.906438377943
191008,2024-10,PUNGGOL,4 ROOM,613C,PUNGGOL DR,07 TO 09,93.0,Model A,2012,87 years 03 months,640000.0,613C PUNGGOL DR,823613,1.40398321711595,103.908663894394
191009,2024-10,PUNGGOL,4 ROOM,617D,PUNGGOL DR,07 TO 09,93.0,Premium Apartment,2013,88 years,700000.0,617D PUNGGOL DR,824617,1.40161428921505,103.912807967947
191010,2024-10,PUNGGOL,4 ROOM,679A,PUNGGOL DR,07 TO 09,93.0,Premium Apartment,2016,91 years,698000.0,679A PUNGGOL DR,821679,1.40591156262743,103.908288150968
191011,2024-10,PUNGGOL,4 ROOM,168A,PUNGGOL EAST,07 TO 09,92.0,Premium Apartment,2009,83 years 06 months,608888.0,168A PUNGGOL EAST,821168,1.39458916861034,103.914238786983
191015,2024-10,PUNGGOL,4 ROOM,314B,PUNGGOL WAY,16 TO 18,93.0,Premium Apartment,2017,92 years,740000.0,314B PUNGGOL WAY,822314,1.40789778716346,103.897370752408
191025,2024-10,PUNGGOL,5 ROOM,323D,SUMANG WALK,01 TO 03,113.0,Premium Apartment,2020,94 years 04 months,770000.0,323D SUMANG WALK,824323,1.41218811745694,103.897455703032
191031,2024-10,QUEENSTOWN,4 ROOM,88,DAWSON RD,04 TO 06,83.0,Premium Apartment,2016,90 years 11 months,935000.0,88 DAWSON RD,142088,1.29579395038247,103.809264765809
191032,2024-10,QUEENSTOWN,4 ROOM,61A,STRATHMORE AVE,10 TO 12,96.0,Model A,2011,85 years 11 months,988000.0,61A STRATHMORE AVE,142061,1.29386098878546,103.811583887322
191033,2024-10,QUEENSTOWN,5 ROOM,23,GHIM MOH LINK,10 TO 12,113.0,Improved,2013,87 years 07 months,1250000.0,23 GHIM MOH LINK,271023,1.30863562772071,103.786331973494
191034,2024-10,QUEENSTOWN,5 ROOM,28,GHIM MOH LINK,04 TO 06,113.0,Improved,2013,87 years 07 months,1155000.0,28 GHIM MOH LINK,270028,1.30887985026284,103.784802916649
191036,2024-10,SEMBAWANG,2 ROOM,363B,SEMBAWANG CRES,07 TO 09,47.0,Model A,2019,93 years 08 months,368888.0,363B SEMBAWANG CRES,752363,1.44575590718724,103.813638043808
191039,2024-10,SEMBAWANG,3 ROOM,366A,SEMBAWANG CRES,01 TO 03,68.0,Model A,2019,93 years 08 months,445000.0,366A SEMBAWANG CRES,751366,1.4438005069825,103.816211984803
191043,2024-10,SEMBAWANG,4 ROOM,115B,CANBERRA WALK,01 TO 03,93.0,Model A,2018,92 years 10 months,600000.0,115B CANBERRA WALK,752115,1.44631122878781,103.829416902418
191044,2024-10,SEMBAWANG,4 ROOM,593A,MONTREAL LINK,07 TO 09,93.0,Model A,2015,89 years 07 months,586800.0,593A MONTREAL LINK,751593,1.45154716074707,103.827907536375
191045,2024-10,SEMBAWANG,4 ROOM,334,SEMBAWANG CL,01 TO 03,100.0,Model A,1999,74 years 03 months,520000.0,334 SEMBAWANG CL,750334,1.44732828215134,103.81582008771
191046,2024-10,SEMBAWANG,4 ROOM,362A,SEMBAWANG CRES,13 TO 15,93.0,Model A,2019,93 years 08 months,638000.0,362A SEMBAWANG CRES,751362,1.44719485060317,103.814007986875
191048,2024-10,SEMBAWANG,EXECUTIVE,504A,MONTREAL DR,04 TO 06,130.0,Apartment,2001,75 years 08 months,745000.0,504A MONTREAL DR,751504,1.45129656287889,103.824120156543
191051,2024-10,SENGKANG,3 ROOM,414A,FERNVALE LINK,07 TO 09,68.0,Model A,2016,90 years 04 months,481888.0,414A FERNVALE LINK,791414,1.38958310807082,103.87947708432
191055,2024-10,SENGKANG,4 ROOM,287A,COMPASSVALE CRES,01 TO 03,96.0,Premium Apartment,2017,92 years 02 months,628000.0,287A COMPASSVALE CRES,541287,1.39843751923085,103.895957792826
191057,2024-10,SENGKANG,4 ROOM,247,COMPASSVALE RD,04 TO 06,85.0,Model A2,2000,74 years 08 months,545000.0,247 COMPASSVALE RD,540247,1.3920922979789,103.899249247556
191061,2024-10,SENGKANG,4 ROOM,282A,SENGKANG EAST AVE,10 TO 12,92.0,Premium Apartment,2015,89 years 11 months,800000.0,282A SENGKANG EAST AVE,541282,1.38528977819863,103.891907359174
191070,2024-10,SENGKANG,5 ROOM,196,RIVERVALE DR,10 TO 12,111.0,Improved,2001,75 years 07 months,680000.0,196 RIVERVALE DR,540196,1.39283679521508,103.903146292304
191079,2024-10,TAMPINES,3 ROOM,606C,TAMPINES ST 61,10 TO 12,68.0,Model A,2020,94 years 05 months,590000.0,606C TAMPINES ST 61,523606,1.36189172236248,103.937506920261
191080,2024-10,TAMPINES,3 ROOM,852,TAMPINES ST 82,10 TO 12,74.0,Model A,1985,59 years 08 months,480000.0,852 TAMPINES ST 82,520852,1.35270378927022,103.936448526607
191083,2024-10,TAMPINES,4 ROOM,280,TAMPINES ST 22,01 TO 03,114.0,Model A,1984,58 years 10 months,615000.0,280 TAMPINES ST 22,520280,1.34753519689194,103.951702776881
191085,2024-10,TAMPINES,4 ROOM,406,TAMPINES ST 41,01 TO 03,89.0,Simplified,1986,61 years 01 month,577500.0,406 TAMPINES ST 41,520406,1.35783243904096,103.945773504554
191087,2024-10,TAMPINES,4 ROOM,910,TAMPINES ST 91,10 TO 12,104.0,Model A,1984,59 years 01 month,650000.0,910 TAMPINES ST 91,520910,1.34981662888398,103.938742161124
191090,2024-10,TAMPINES,5 ROOM,349,TAMPINES ST 33,01 TO 03,127.0,Improved,1996,70 years 08 months,665000.0,349 TAMPINES ST 33,520349,1.35341689800131,103.963011755353
191091,2024-10,TAMPINES,5 ROOM,350,TAMPINES ST 33,10 TO 12,132.0,Model A,1996,70 years 08 months,725888.0,350 TAMPINES ST 33,520350,1.35385109582854,103.963082353909
191093,2024-10,TAMPINES,5 ROOM,494H,TAMPINES ST 45,10 TO 12,113.0,Improved,2018,93 years 02 months,843000.0,494H TAMPINES ST 45,528494,1.36368314068034,103.95499248871
191097,2024-10,TAMPINES,EXECUTIVE,856F,TAMPINES ST 82,04 TO 06,143.0,Apartment,1995,70 years 02 months,1100000.0,856F TAMPINES ST 82,526856,1.35291277412563,103.938357435494
191099,2024-10,TOA PAYOH,3 ROOM,118,LOR 1 TOA PAYOH,01 TO 03,64.0,Improved,1968,42 years 10 months,360000.0,118 LOR 1 TOA PAYOH,310118,1.33956301707324,103.844893597061
191100,2024-10,TOA PAYOH,3 ROOM,168,LOR 1 TOA PAYOH,04 TO 06,65.0,Improved,1972,46 years 11 months,380000.0,168 LOR 1 TOA PAYOH,310168,1.33176643070234,103.843423249665
191101,2024-10,TOA PAYOH,3 ROOM,116,LOR 2 TOA PAYOH,04 TO 06,63.0,Improved,1970,44 years 04 months,405000.0,116 LOR 2 TOA PAYOH,310116,1.34047287241805,103.846142516335
191106,2024-10,TOA PAYOH,5 ROOM,50,LOR 5 TOA PAYOH,07 TO 09,134.0,Model A,1993,67 years 07 months,1050000.0,50 LOR 5 TOA PAYOH,310050,1.33698988933191,103.852692901602
191107,2024-10,WOODLANDS,2 ROOM,780F,WOODLANDS CRES,07 TO 09,47.0,Model A,2015,89 years 10 months,320000.0,780F WOODLANDS CRES,736780,1.44777726469884,103.801148446244
191108,2024-10,WOODLANDS,3 ROOM,6,MARSILING DR,13 TO 15,76.0,Improved,1976,50 years 04 months,362888.0,6 MARSILING DR,730006,1.44207297644105,103.776353990531
191110,2024-10,WOODLANDS,3 ROOM,180B,MARSILING RD,28 TO 30,66.0,Model A,2015,89 years 11 months,488000.0,180B MARSILING RD,732180,1.43905659750822,103.778349763028
191111,2024-10,WOODLANDS,3 ROOM,570A,WOODLANDS AVE 1,04 TO 06,67.0,Model A,2013,88 years 02 months,475000.0,570A WOODLANDS AVE 1,731570,1.43058343799569,103.790845778879
191115,2024-10,WOODLANDS,4 ROOM,542,WOODLANDS DR 16,04 TO 06,101.0,Model A,2000,74 years 08 months,545000.0,542 WOODLANDS DR 16,730542,1.42773187485332,103.793625057871
191119,2024-10,WOODLANDS,4 ROOM,106,WOODLANDS ST 13,01 TO 03,92.0,New Generation,1985,59 years 07 months,520000.0,106 WOODLANDS ST 13,730106,1.4367694338717,103.782224172938
191120,2024-10,WOODLANDS,4 ROOM,182B,WOODLANDS ST 13,28 TO 30,93.0,Model A,2019,94 years 01 month,712000.0,182B WOODLANDS ST 13,732182,1.43540518046772,103.776360045557
191123,2024-10,WOODLANDS,5 ROOM,129,MARSILING RISE,07 TO 09,123.0,Improved,1985,59 years 04 months,595000.0,129 MARSILING RISE,730129,1.43781136682326,103.778702019627
191126,2024-10,WOODLANDS,5 ROOM,516,WOODLANDS DR 14,07 TO 09,125.0,Premium Apartment,1999,73 years 06 months,700000.0,516 WOODLANDS DR 14,730516,1.43469554286276,103.791048679069
191133,2024-10,WOODLANDS,EXECUTIVE,358,WOODLANDS AVE 5,04 TO 06,150.0,Maisonette,1996,70 years 11 months,935000.0,358 WOODLANDS AVE 5,730358,1.43368262673441,103.78387506315
191135,2024-10,YISHUN,3 ROOM,348A,YISHUN AVE 11,13 TO 15,67.0,DBSS,2013,87 years 11 months,553000.0,348A YISHUN AVE 11,761348,1.42735308102406,103.84121918037
191136,2024-10,YISHUN,3 ROOM,335B,YISHUN ST 31,04 TO 06,67.0,Model A,2015,90 years 02 months,460000.0,335B YISHUN ST 31,762335,1.43284184188975,103.844333075878
191138,2024-10,YISHUN,4 ROOM,348C,YISHUN AVE 11,04 TO 06,92.0,DBSS,2013,87 years 11 months,735000.0,348C YISHUN AVE 11,763348,1.42714143019714,103.84223128885
191139,2024-10,YISHUN,4 ROOM,303,YISHUN CTRL,10 TO 12,105.0,Model A,1988,63 years 02 months,582000.0,303 YISHUN CTRL,760303,1.43026863874417,103.840067166013
191143,2024-10,YISHUN,5 ROOM,315C,YISHUN AVE 9,04 TO 06,112.0,Improved,2015,90 years 01 month,738888.0,315C YISHUN AVE 9,763315,1.43236735703997,103.843300870773
190827,2024-10,ANG MO KIO,3 ROOM,418,ANG MO KIO AVE 10,04 TO 06,74.0,New Generation,1979,53 years 11 months,412000.0,418 ANG MO KIO AVE 10,560418,1.3649460137791,103.854043379775
190828,2024-10,ANG MO KIO,3 ROOM,560,ANG MO KIO AVE 10,10 TO 12,67.0,New Generation,1980,54 years 05 months,390000.0,560 ANG MO KIO AVE 10,560560,1.37081626777721,103.859192334256
190836,2024-10,ANG MO KIO,4 ROOM,573,ANG MO KIO AVE 3,10 TO 12,92.0,New Generation,1979,53 years 08 months,580000.0,573 ANG MO KIO AVE 3,560573,1.37056143999067,103.854823102785
190839,2024-10,ANG MO KIO,5 ROOM,310A,ANG MO KIO AVE 1,19 TO 21,121.0,Improved,2012,87 years,1300000.0,310A ANG MO KIO AVE 1,561310,1.36481255187585,103.843844243986
190841,2024-10,ANG MO KIO,5 ROOM,545,ANG MO KIO AVE 10,04 TO 06,118.0,Improved,1981,55 years 04 months,690000.0,545 ANG MO KIO AVE 10,560545,1.37317921904936,103.856294541429
190844,2024-10,BEDOK,3 ROOM,550,BEDOK NTH AVE 1,10 TO 12,68.0,New Generation,1980,54 years 09 months,410000.0,550 BEDOK NTH AVE 1,460550,1.3326931795279,103.926617402908
190847,2024-10,BEDOK,3 ROOM,115,BEDOK NTH RD,10 TO 12,73.0,New Generation,1978,52 years 08 months,450000.0,115 BEDOK NTH RD,460115,1.33143368026417,103.936865404278
190852,2024-10,BEDOK,3 ROOM,126,BEDOK RESERVOIR RD,04 TO 06,64.0,Simplified,1987,61 years 07 months,410000.0,126 BEDOK RESERVOIR RD,470126,1.3327387082677,103.910911917656
190854,2024-10,BEDOK,4 ROOM,512,BEDOK NTH AVE 2,04 TO 06,92.0,New Generation,1979,53 years 10 months,500000.0,512 BEDOK NTH AVE 2,460512,1.33336715518929,103.929177675999
190857,2024-10,BEDOK,4 ROOM,612,BEDOK RESERVOIR RD,04 TO 06,98.0,New Generation,1981,55 years 07 months,540000.0,612 BEDOK RESERVOIR RD,470612,1.3316586704976,103.915937361546
190858,2024-10,BEDOK,4 ROOM,626,BEDOK RESERVOIR RD,07 TO 09,91.0,New Generation,1981,55 years 06 months,540000.0,626 BEDOK RESERVOIR RD,470626,1.33436836445678,103.915682191976
190867,2024-10,BISHAN,4 ROOM,145,BISHAN ST 11,04 TO 06,102.0,Model A,1987,62 years 01 month,730000.0,145 BISHAN ST 11,570145,1.34488600912462,103.85428449567
190869,2024-10,BISHAN,4 ROOM,109,BISHAN ST 12,10 TO 12,84.0,Simplified,1985,60 years 03 months,730000.0,109 BISHAN ST 12,570109,1.34675059587742,103.847990168368
190880,2024-10,BUKIT BATOK,3 ROOM,377,BT BATOK ST 31,10 TO 12,67.0,Model A,2019,93 years 07 months,555000.0,377 BT BATOK ST 31,650377,1.35942058239166,103.750290022372
190884,2024-10,BUKIT BATOK,3 ROOM,448B,BT BATOK WEST AVE 9,13 TO 15,68.0,Model A,2019,93 years 07 months,488000.0,448B BT BATOK WEST AVE 9,652448,1.35314900034194,103.740846555722
190889,2024-10,BUKIT BATOK,4 ROOM,386,BT BATOK WEST AVE 5,07 TO 09,92.0,Model A,2004,79 years 03 months,568000.0,386 BT BATOK WEST AVE 5,650386,1.36393942184816,103.752556035691
190894,2024-10,BUKIT BATOK,4 ROOM,187,BT BATOK WEST AVE 6,04 TO 06,105.0,Model A,1989,63 years 05 months,557000.0,187 BT BATOK WEST AVE 6,650187,1.34651344118157,103.744614358938
190897,2024-10,BUKIT BATOK,4 ROOM,461B,BT BATOK WEST AVE 8,01 TO 03,93.0,Model A,2019,94 years,598000.0,461B BT BATOK WEST AVE 8,652461,1.35521232611038,103.740183600705
190898,2024-10,BUKIT BATOK,4 ROOM,449B,BT BATOK WEST AVE 9,16 TO 18,93.0,Model A,2019,93 years 06 months,655888.0,449B BT BATOK WEST AVE 9,652449,1.35197886358706,103.741081176999
190899,2024-10,BUKIT BATOK,5 ROOM,288A,BT BATOK ST 25,07 TO 09,122.0,Improved,1997,72 years 03 months,738000.0,288A BT BATOK ST 25,650288,1.34507653993863,103.760512031129
190905,2024-10,BUKIT MERAH,2 ROOM,95B,HENDERSON RD,07 TO 09,47.0,2-room,2019,93 years 08 months,503000.0,95B HENDERSON RD,152095,1.28697703899167,103.821558832304
190908,2024-10,BUKIT MERAH,3 ROOM,109,BT PURMEI RD,07 TO 09,74.0,Model A,1984,59 years,495000.0,109 BT PURMEI RD,90109,1.27392939929265,103.825310761145
190910,2024-10,BUKIT MERAH,3 ROOM,95C,HENDERSON RD,25 TO 27,68.0,Model A,2019,93 years 08 months,760000.0,95C HENDERSON RD,153095,1.28740640570626,103.822053233106
190914,2024-10,BUKIT MERAH,4 ROOM,38,JLN RUMAH TINGGI,19 TO 21,99.0,Model A,1997,71 years 09 months,760000.0,38 JLN RUMAH TINGGI,150038,1.28863365915922,103.809643901495
190916,2024-10,BUKIT MERAH,4 ROOM,24,TELOK BLANGAH CRES,01 TO 03,82.0,Improved,1975,49 years 08 months,515000.0,24 TELOK BLANGAH CRES,90024,1.27540949062767,103.820660541826
190918,2024-10,BUKIT MERAH,4 ROOM,40,TELOK BLANGAH RISE,04 TO 06,82.0,Improved,1976,50 years 07 months,485000.0,40 TELOK BLANGAH RISE,90040,1.27209926567831,103.823245112725
190925,2024-10,BUKIT PANJANG,3 ROOM,485,SEGAR RD,04 TO 06,67.0,Model A,2014,89 years 03 months,462888.0,485 SEGAR RD,670485,1.38868132378093,103.771312569429
190929,2024-10,BUKIT PANJANG,5 ROOM,537,BT PANJANG RING RD,07 TO 09,122.0,Improved,1999,73 years 09 months,785888.0,537 BT PANJANG RING RD,670537,1.38372140816294,103.763127776187
190939,2024-10,CHOA CHU KANG,4 ROOM,488C,CHOA CHU KANG AVE 5,04 TO 06,93.0,Model A,2016,90 years 09 months,560888.0,488C CHOA CHU KANG AVE 5,683488,1.37659678332207,103.73994960705
190942,2024-10,CHOA CHU KANG,4 ROOM,672,CHOA CHU KANG CRES,10 TO 12,100.0,Premium Apartment,2000,74 years 05 months,540088.0,672 CHOA CHU KANG CRES,680672,1.40215166474802,103.747495879547
190946,2024-10,CHOA CHU KANG,4 ROOM,546,CHOA CHU KANG ST 52,07 TO 09,105.0,Model A,1995,69 years 04 months,550000.0,546 CHOA CHU KANG ST 52,680546,1.39301282897146,103.743262359418
190957,2024-10,CLEMENTI,3 ROOM,345,CLEMENTI AVE 5,04 TO 06,67.0,New Generation,1979,53 years 07 months,410000.0,345 CLEMENTI AVE 5,120345,1.31770281154049,103.769076731999
190965,2024-10,HOUGANG,3 ROOM,19,HOUGANG AVE 3,10 TO 12,88.0,New Generation,1978,52 years 08 months,460000.0,19 HOUGANG AVE 3,530019,1.36378961600309,103.891813266061
190966,2024-10,HOUGANG,3 ROOM,248,HOUGANG AVE 3,01 TO 03,71.0,New Generation,1984,59 years 01 month,420000.0,248 HOUGANG AVE 3,530248,1.35937034964577,103.892587549209
190968,2024-10,HOUGANG,3 ROOM,244,HOUGANG ST 22,10 TO 12,67.0,New Generation,1984,59 years,428000.0,244 HOUGANG ST 22,530244,1.35807253232842,103.891946844004
190969,2024-10,HOUGANG,3 ROOM,473B,UPP SERANGOON CRES,10 TO 12,68.0,Model A,2017,91 years 10 months,510000.0,473B UPP SERANGOON CRES,532473,1.37593845080051,103.901084524846
190972,2024-10,HOUGANG,4 ROOM,553,HOUGANG ST 51,10 TO 12,104.0,Model A,1989,64 years,600000.0,553 HOUGANG ST 51,530553,1.37912950419349,103.890376362574
190977,2024-10,HOUGANG,5 ROOM,156,HOUGANG ST 11,10 TO 12,121.0,Improved,1984,59 years 03 months,710000.0,156 HOUGANG ST 11,530156,1.35252680179377,103.879594937532
190989,2024-10,JURONG EAST,5 ROOM,201,JURONG EAST ST 21,07 TO 09,120.0,Improved,1989,63 years 07 months,760000.0,201 JURONG EAST ST 21,600201,1.3364056697524,103.743075430286
190995,2024-10,JURONG WEST,3 ROOM,208,BOON LAY PL,13 TO 15,74.0,Improved,1976,51 years 02 months,372000.0,208 BOON LAY PL,640208,1.34700367367083,103.714216413585
190996,2024-10,JURONG WEST,3 ROOM,119,HO CHING RD,01 TO 03,67.0,Improved,1972,46 years 04 months,316000.0,119 HO CHING RD,610119,1.33529905914454,103.724712974749
191011,2024-10,JURONG WEST,4 ROOM,164A,YUNG KUANG RD,04 TO 06,93.0,Model A,2018,93 years 01 month,600000.0,164A YUNG KUANG RD,611164,1.33018740882956,103.721875506696
191012,2024-10,JURONG WEST,4 ROOM,166B,YUNG KUANG RD,01 TO 03,93.0,Model A,2018,93 years 01 month,535000.0,166B YUNG KUANG RD,612166,1.3312465772439,103.722255844894
191018,2024-10,JURONG WEST,5 ROOM,664A,JURONG WEST ST 64,04 TO 06,110.0,Improved,2000,74 years 10 months,610000.0,664A JURONG WEST ST 64,641664,1.33920641630237,103.703397452008
191020,2024-10,JURONG WEST,5 ROOM,673C,JURONG WEST ST 65,04 TO 06,111.0,Improved,2002,77 years 04 months,581000.0,673C JURONG WEST ST 65,643673,1.34471213524955,103.701313082539
191022,2024-10,JURONG WEST,5 ROOM,909,JURONG WEST ST 91,10 TO 12,122.0,Improved,1989,63 years 04 months,580000.0,909 JURONG WEST ST 91,640909,1.34117518124864,103.68645214091
191024,2024-10,JURONG WEST,5 ROOM,328,TAH CHING RD,16 TO 18,124.0,Improved,1997,71 years 11 months,685000.0,328 TAH CHING RD,610328,1.33663451315422,103.72260042207
191038,2024-10,KALLANG/WHAMPOA,4 ROOM,119,MCNAIR RD,07 TO 09,84.0,Simplified,1987,62 years,630000.0,119 MCNAIR RD,320119,1.3197152535396,103.856870419005
191039,2024-10,KALLANG/WHAMPOA,4 ROOM,121,MCNAIR RD,01 TO 03,104.0,Model A,1987,61 years 09 months,668000.0,121 MCNAIR RD,320121,1.31896793997824,103.856341994979
191044,2024-10,KALLANG/WHAMPOA,4 ROOM,49,WHAMPOA STH,13 TO 15,87.0,Improved,1974,49 years 01 month,500000.0,49 WHAMPOA STH,330049,1.32448737406528,103.866368168069
191055,2024-10,PASIR RIS,EXECUTIVE,128,PASIR RIS ST 11,07 TO 09,151.0,Maisonette,1988,63 years 03 months,835000.0,128 PASIR RIS ST 11,510128,1.36607200208533,103.955614245139
191057,2024-10,PASIR RIS,EXECUTIVE,237,PASIR RIS ST 21,04 TO 06,146.0,Apartment,1993,67 years 11 months,808000.0,237 PASIR RIS ST 21,510237,1.37407916915993,103.962867929916
191068,2024-10,PUNGGOL,4 ROOM,613B,PUNGGOL DR,04 TO 06,93.0,Model A,2012,87 years 03 months,618888.0,613B PUNGGOL DR,822613,1.40427710253969,103.90827778637
191069,2024-10,PUNGGOL,4 ROOM,618D,PUNGGOL DR,13 TO 15,95.0,Premium Apartment,2013,88 years,688000.0,618D PUNGGOL DR,824618,1.40184131856722,103.911466174026
191070,2024-10,PUNGGOL,4 ROOM,635C,PUNGGOL DR,10 TO 12,93.0,Premium Apartment,2007,82 years 03 months,660000.0,635C PUNGGOL DR,823635,1.40065432430108,103.914186687161
191076,2024-10,PUNGGOL,4 ROOM,232B,SUMANG LANE,01 TO 03,93.0,Model A,2018,93 years 02 months,590000.0,232B SUMANG LANE,822232,1.40229542971451,103.890631891929
191079,2024-10,PUNGGOL,5 ROOM,126C,EDGEDALE PLAINS,10 TO 12,110.0,Improved,2003,77 years 06 months,653000.0,126C EDGEDALE PLAINS,823126,1.39397053057079,103.910663559632
191083,2024-10,PUNGGOL,5 ROOM,204A,PUNGGOL FIELD,13 TO 15,110.0,Improved,2004,79 years,665000.0,204A PUNGGOL FIELD,821204,1.39877827554853,103.902910892565
191090,2024-10,QUEENSTOWN,3 ROOM,86,C'WEALTH CL,01 TO 03,60.0,Standard,1967,41 years 04 months,380000.0,86 C'WEALTH CL,140086,1.30438425657259,103.79934984603
191099,2024-10,QUEENSTOWN,5 ROOM,20,HOLLAND DR,04 TO 06,117.0,Standard,1975,49 years 04 months,960000.0,20 HOLLAND DR,271020,1.31049160423204,103.79225696682
191119,2024-10,SENGKANG,4 ROOM,320A,ANCHORVALE DR,10 TO 12,85.0,Model A2,2002,77 years,569000.0,320A ANCHORVALE DR,541320,1.39033370024041,103.891002827157
191120,2024-10,SENGKANG,4 ROOM,333A,ANCHORVALE LINK,01 TO 03,92.0,Model A,2015,89 years 09 months,625000.0,333A ANCHORVALE LINK,541333,1.39468433299355,103.89086832093
191125,2024-10,SENGKANG,4 ROOM,403C,FERNVALE LANE,07 TO 09,94.0,Premium Apartment,2004,78 years 08 months,552000.0,403C FERNVALE LANE,793403,1.38831848133702,103.87293569738
191126,2024-10,SENGKANG,4 ROOM,414B,FERNVALE LINK,16 TO 18,93.0,Model A,2016,90 years 04 months,640000.0,414B FERNVALE LINK,792414,1.39001961783905,103.879574314696
191130,2024-10,SENGKANG,4 ROOM,140,RIVERVALE ST,04 TO 06,97.0,Model A2,1999,73 years 04 months,560000.0,140 RIVERVALE ST,540140,1.38937559481463,103.903705419983
191131,2024-10,SENGKANG,4 ROOM,272A,SENGKANG CTRL,07 TO 09,90.0,Premium Apartment,2009,84 years 03 months,788888.0,272A SENGKANG CTRL,541272,1.38526180662915,103.893959317126
191136,2024-10,SENGKANG,5 ROOM,278A,COMPASSVALE BOW,16 TO 18,113.0,Improved,2017,92 years 03 months,955000.0,278A COMPASSVALE BOW,541278,1.38188082172346,103.890295472102
191144,2024-10,SENGKANG,EXECUTIVE,302C,ANCHORVALE LINK,10 TO 12,130.0,Apartment,2001,76 years 02 months,800000.0,302C ANCHORVALE LINK,543302,1.38807961549725,103.890153139284
191148,2024-10,SERANGOON,4 ROOM,409,SERANGOON CTRL,10 TO 12,94.0,New Generation,1989,63 years 04 months,800000.0,409 SERANGOON CTRL,550409,1.34814760717489,103.874419496654
191149,2024-10,SERANGOON,EXECUTIVE,236A,SERANGOON AVE 2,07 TO 09,140.0,Apartment,1998,72 years 09 months,1180000.0,236A SERANGOON AVE 2,551236,1.35387693926748,103.869510740238
191150,2024-10,TAMPINES,3 ROOM,890B,TAMPINES AVE 1,13 TO 15,69.0,Model A,2015,90 years,570000.0,890B TAMPINES AVE 1,522890,1.34690555756363,103.933409216927
191155,2024-10,TAMPINES,3 ROOM,283,TAMPINES ST 22,07 TO 09,84.0,Model A,1984,59 years,498800.0,283 TAMPINES ST 22,520283,1.34862955734174,103.952853471968
191156,2024-10,TAMPINES,3 ROOM,213,TAMPINES ST 23,01 TO 03,73.0,Model A,1985,59 years 06 months,440000.0,213 TAMPINES ST 23,520213,1.35479532321043,103.953935558339
191161,2024-10,TAMPINES,4 ROOM,601C,TAMPINES AVE 9,10 TO 12,92.0,Model A,2020,94 years 05 months,770000.0,601C TAMPINES AVE 9,523601,1.36137360614437,103.937271692223
191163,2024-10,TAMPINES,4 ROOM,248,TAMPINES ST 21,07 TO 09,91.0,New Generation,1984,59 years 04 months,620000.0,248 TAMPINES ST 21,521248,1.35191019042837,103.947108773379
191166,2024-10,TAMPINES,4 ROOM,351,TAMPINES ST 33,04 TO 06,105.0,Model A,1996,70 years 08 months,590000.0,351 TAMPINES ST 33,520351,1.35295678900579,103.963067447216
191187,2024-10,TOA PAYOH,4 ROOM,138B,LOR 1A TOA PAYOH,31 TO 33,91.0,DBSS,2012,86 years 08 months,1080000.0,138B LOR 1A TOA PAYOH,312138,1.33626408939965,103.845626191384
191197,2024-10,WOODLANDS,4 ROOM,12A,MARSILING LANE,25 TO 27,93.0,Model A,2013,87 years 09 months,615000.0,12A MARSILING LANE,731012,1.44131726915198,103.778405129794
191207,2024-10,WOODLANDS,4 ROOM,825,WOODLANDS ST 81,07 TO 09,84.0,Simplified,1990,64 years 09 months,480000.0,825 WOODLANDS ST 81,730825,1.43883122583239,103.789589257706
191212,2024-10,WOODLANDS,5 ROOM,585,WOODLANDS DR 16,07 TO 09,111.0,Improved,2001,76 years 01 month,608000.0,585 WOODLANDS DR 16,730585,1.42920597374185,103.79540833238
191220,2024-10,WOODLANDS,EXECUTIVE,511,WOODLANDS DR 14,07 TO 09,147.0,Premium Apartment,1999,73 years 06 months,845000.0,511 WOODLANDS DR 14,730511,1.43345295690823,103.788653978912
191222,2024-10,YISHUN,2 ROOM,675B,YISHUN AVE 4,10 TO 12,47.0,Model A,2018,93 years 03 months,360000.0,675B YISHUN AVE 4,762675,1.41899508499611,103.842949381197
191224,2024-10,YISHUN,3 ROOM,671A,YISHUN AVE 4,13 TO 15,68.0,Model A,2018,92 years 05 months,488000.0,671A YISHUN AVE 4,761671,1.41897568011422,103.842333395726
191225,2024-10,YISHUN,3 ROOM,217,YISHUN ST 21,10 TO 12,68.0,New Generation,1985,60 years,430888.0,217 YISHUN ST 21,760217,1.43262267614989,103.836318733123
191229,2024-10,YISHUN,4 ROOM,427,YISHUN AVE 11,07 TO 09,84.0,Simplified,1988,63 years,482500.0,427 YISHUN AVE 11,760427,1.42206906919871,103.848091765572
191230,2024-10,YISHUN,4 ROOM,770,YISHUN AVE 3,04 TO 06,84.0,Simplified,1986,61 years 01 month,480000.0,770 YISHUN AVE 3,760770,1.42448626001165,103.832251391777
191236,2024-10,YISHUN,5 ROOM,504C,YISHUN ST 51,10 TO 12,113.0,Improved,2016,90 years 06 months,747000.0,504C YISHUN ST 51,763504,1.41796651351006,103.843458679904
190842,2024-10,ANG MO KIO,5 ROOM,111,ANG MO KIO AVE 4,10 TO 12,117.0,Improved,1978,52 years 11 months,810000.0,111 ANG MO KIO AVE 4,560111,1.37085148985913,103.837298157413
190863,2024-10,BEDOK,5 ROOM,186A,BEDOK NTH ST 4,19 TO 21,113.0,Improved,2018,93 years 03 months,1050000.0,186A BEDOK NTH ST 4,461186,1.32991427421905,103.940310513079
190869,2024-10,BISHAN,3 ROOM,308,SHUNFU RD,07 TO 09,67.0,New Generation,1984,59 years 03 months,552000.0,308 SHUNFU RD,570308,1.35058252902296,103.837846846026
190873,2024-10,BISHAN,4 ROOM,111,BISHAN ST 12,04 TO 06,84.0,Simplified,1986,60 years 04 months,748000.0,111 BISHAN ST 12,570111,1.34706752664279,103.848063665404
190875,2024-10,BISHAN,4 ROOM,254,BISHAN ST 22,04 TO 06,112.0,Model A,1992,66 years 11 months,730000.0,254 BISHAN ST 22,570254,1.36192324092535,103.842999164881
190876,2024-10,BISHAN,4 ROOM,289,BISHAN ST 24,04 TO 06,102.0,Premium Apartment,1998,72 years 09 months,800000.0,289 BISHAN ST 24,570289,1.35666114854932,103.844930577727
190882,2024-10,BUKIT BATOK,3 ROOM,231,BT BATOK EAST AVE 5,04 TO 06,69.0,New Generation,1985,59 years 09 months,390000.0,231 BT BATOK EAST AVE 5,650231,1.34908254998383,103.754518186115
190887,2024-10,BUKIT BATOK,3 ROOM,212,BT BATOK ST 21,01 TO 03,71.0,New Generation,1985,60 years,420000.0,212 BT BATOK ST 21,650212,1.34719281119437,103.752217334445
190920,2024-10,BUKIT MERAH,3 ROOM,28,JLN BT MERAH,04 TO 06,60.0,Standard,1967,41 years 09 months,364000.0,28 JLN BT MERAH,152028,1.28640350234512,103.809741989834
190924,2024-10,BUKIT MERAH,4 ROOM,8,CANTONMENT CL,19 TO 21,90.0,Model A,2002,77 years 03 months,1020000.0,8 CANTONMENT CL,81008,1.275801012778,103.839032638772
190929,2024-10,BUKIT MERAH,4 ROOM,88,TELOK BLANGAH HTS,22 TO 24,85.0,Model A,2003,77 years 06 months,790000.0,88 TELOK BLANGAH HTS,100088,1.27736919004889,103.808254924084
190932,2024-10,BUKIT MERAH,5 ROOM,49,HOY FATT RD,10 TO 12,122.0,Improved,1986,60 years 10 months,815000.0,49 HOY FATT RD,150049,1.28748905001859,103.811714119673
190937,2024-10,BUKIT PANJANG,3 ROOM,223,PENDING RD,04 TO 06,73.0,Model A,1988,62 years 06 months,420000.0,223 PENDING RD,670223,1.37573517510314,103.773609219643
190940,2024-10,BUKIT PANJANG,3 ROOM,547D,SEGAR RD,04 TO 06,67.0,Model A,2015,89 years 11 months,482000.0,547D SEGAR RD,674547,1.38890112645022,103.7690032304
190943,2024-10,BUKIT PANJANG,4 ROOM,402,FAJAR RD,01 TO 03,107.0,Model A,1988,63 years 03 months,480000.0,402 FAJAR RD,670402,1.38031226320182,103.768073595
190944,2024-10,BUKIT PANJANG,4 ROOM,403,FAJAR RD,10 TO 12,84.0,Simplified,1988,62 years 10 months,480000.0,403 FAJAR RD,670403,1.3811296995225,103.767749629838
190945,2024-10,BUKIT PANJANG,4 ROOM,512,JELAPANG RD,01 TO 03,102.0,Model A,1998,72 years 08 months,520000.0,512 JELAPANG RD,670512,1.38733197714311,103.768255010804
190950,2024-10,BUKIT PANJANG,5 ROOM,546B,SEGAR RD,13 TO 15,112.0,Improved,2015,89 years 11 months,695000.0,546B SEGAR RD,672546,1.38879453668982,103.769891778175
190953,2024-10,BUKIT PANJANG,5 ROOM,626,SENJA RD,28 TO 30,110.0,Premium Apartment,2005,79 years 06 months,721888.0,626 SENJA RD,670626,1.38547480834709,103.759880549321
190955,2024-10,BUKIT TIMAH,3 ROOM,8,EMPRESS RD,04 TO 06,76.0,Improved,1976,50 years 07 months,510000.0,8 EMPRESS RD,260008,1.31641190098174,103.805373811937
190957,2024-10,BUKIT TIMAH,5 ROOM,12,TOH YI DR,01 TO 03,122.0,Improved,1989,63 years 08 months,1050000.0,12 TOH YI DR,590012,1.33840274340359,103.772685810097
190959,2024-10,CHOA CHU KANG,3 ROOM,807A,CHOA CHU KANG AVE 1,07 TO 09,67.0,Model A,2017,91 years 08 months,470000.0,807A CHOA CHU KANG AVE 1,681807,1.37580545998649,103.744793478077
190961,2024-10,CHOA CHU KANG,4 ROOM,248,CHOA CHU KANG AVE 2,13 TO 15,104.0,Model A,1993,67 years 09 months,530000.0,248 CHOA CHU KANG AVE 2,680248,1.37900459646071,103.745926026056
190967,2024-10,CHOA CHU KANG,4 ROOM,684B,CHOA CHU KANG CRES,07 TO 09,90.0,Model A,2002,77 years 01 month,540000.0,684B CHOA CHU KANG CRES,682684,1.40389957807762,103.747236264641
190968,2024-10,CHOA CHU KANG,4 ROOM,690A,CHOA CHU KANG CRES,10 TO 12,90.0,Model A,2003,77 years 09 months,501188.0,690A CHOA CHU KANG CRES,681690,1.40277627634375,103.751539941559
190977,2024-10,CHOA CHU KANG,5 ROOM,489A,CHOA CHU KANG AVE 5,10 TO 12,113.0,Improved,2016,90 years 09 months,672000.0,489A CHOA CHU KANG AVE 5,681489,1.37560094818422,103.740360009689
190981,2024-10,CHOA CHU KANG,5 ROOM,159,JLN TECK WHYE,07 TO 09,121.0,Improved,1998,72 years 04 months,693388.0,159 JLN TECK WHYE,680159,1.38021644657731,103.756463742103
190982,2024-10,CHOA CHU KANG,5 ROOM,16,TECK WHYE LANE,07 TO 09,134.0,Adjoined flat,1979,53 years 06 months,705000.0,16 TECK WHYE LANE,680016,1.37842710387364,103.754911815576
190987,2024-10,CLEMENTI,4 ROOM,420,CLEMENTI AVE 1,31 TO 33,92.0,Model A,2013,88 years,975000.0,420 CLEMENTI AVE 1,120420,1.31004548976462,103.769123845594
190989,2024-10,CLEMENTI,4 ROOM,312A,CLEMENTI AVE 4,19 TO 21,93.0,Model A,2017,91 years 11 months,1040104.0,312A CLEMENTI AVE 4,121312,1.31908894426179,103.764441220265
190993,2024-10,GEYLANG,3 ROOM,45,SIMS DR,10 TO 12,65.0,Improved,1977,51 years 07 months,415000.0,45 SIMS DR,380045,1.31733721505469,103.878442674183
190995,2024-10,GEYLANG,4 ROOM,2C,GEYLANG SERAI,04 TO 06,95.0,Model A,2011,86 years 03 months,800000.0,2C GEYLANG SERAI,405002,1.31750146062242,103.898206520651
190998,2024-10,GEYLANG,5 ROOM,28,CASSIA CRES,04 TO 06,120.0,Improved,1998,72 years 09 months,1130000.0,28 CASSIA CRES,391028,1.30894452962256,103.883530101124
191004,2024-10,HOUGANG,4 ROOM,103,HOUGANG AVE 1,04 TO 06,108.0,Model A,1983,58 years 03 months,630000.0,103 HOUGANG AVE 1,530103,1.35528223434405,103.89036014824
191023,2024-10,JURONG EAST,4 ROOM,22,TEBAN GDNS RD,04 TO 06,92.0,Model A,2013,88 years,525000.0,22 TEBAN GDNS RD,600022,1.32277239024452,103.739714299254
191028,2024-10,JURONG EAST,5 ROOM,267,TOH GUAN RD,13 TO 15,121.0,Improved,1998,73 years 01 month,790000.0,267 TOH GUAN RD,600267,1.34111736866105,103.744794661314
191034,2024-10,JURONG WEST,3 ROOM,463,JURONG WEST ST 41,01 TO 03,67.0,New Generation,1985,59 years 09 months,400000.0,463 JURONG WEST ST 41,640463,1.35057187534259,103.723239272388
191035,2024-10,JURONG WEST,3 ROOM,560A,JURONG WEST ST 42,01 TO 03,68.0,Model A,2018,92 years 05 months,438888.0,560A JURONG WEST ST 42,641560,1.3533579932237,103.719829055981
191038,2024-10,JURONG WEST,3 ROOM,904,JURONG WEST ST 91,07 TO 09,73.0,Model A,1988,63 years 02 months,405000.0,904 JURONG WEST ST 91,640904,1.34022784221162,103.68593674423
191041,2024-10,JURONG WEST,4 ROOM,273C,JURONG WEST AVE 3,04 TO 06,90.0,Model A,2001,76 years 03 months,462000.0,273C JURONG WEST AVE 3,643273,1.35183241937093,103.704007771092
191043,2024-10,JURONG WEST,4 ROOM,475,JURONG WEST ST 41,01 TO 03,102.0,Model A,1984,58 years 11 months,463000.0,475 JURONG WEST ST 41,640475,1.34809804107273,103.725087226378
191058,2024-10,JURONG WEST,5 ROOM,648D,JURONG WEST ST 61,10 TO 12,110.0,Improved,2001,75 years 07 months,637000.0,648D JURONG WEST ST 61,644648,1.33943036999687,103.697683971767
191072,2024-10,JURONG WEST,EXECUTIVE,363,YUNG AN RD,07 TO 09,146.0,Apartment,1995,69 years 11 months,808000.0,363 YUNG AN RD,610363,1.33658938987308,103.720186335929
191077,2024-10,KALLANG/WHAMPOA,3 ROOM,65,KALLANG BAHRU,01 TO 03,65.0,Improved,1981,55 years 04 months,428000.0,65 KALLANG BAHRU,330065,1.31969547154613,103.868364964604
191091,2024-10,MARINE PARADE,3 ROOM,31,MARINE CRES,10 TO 12,76.0,Improved,1975,49 years 08 months,520000.0,31 MARINE CRES,440031,1.30370556638513,103.911444787591
191092,2024-10,MARINE PARADE,3 ROOM,33,MARINE CRES,13 TO 15,65.0,Improved,1975,49 years 08 months,490000.0,33 MARINE CRES,440033,1.30264896606627,103.912184784558
191093,2024-10,MARINE PARADE,3 ROOM,35,MARINE CRES,07 TO 09,71.0,Improved,1975,49 years 08 months,490000.0,35 MARINE CRES,440035,1.30337040429401,103.912521922537
191108,2024-10,PUNGGOL,2 ROOM,232C,SUMANG LANE,13 TO 15,38.0,2-room,2018,93 years 02 months,350000.0,232C SUMANG LANE,823232,1.40203576124081,103.890116621791
191121,2024-10,PUNGGOL,4 ROOM,613A,PUNGGOL DR,13 TO 15,93.0,Model A,2012,87 years 03 months,660000.0,613A PUNGGOL DR,821613,1.40442051976244,103.907861033253
191125,2024-10,PUNGGOL,4 ROOM,209A,PUNGGOL PL,07 TO 09,92.0,Model A,2014,89 years 03 months,675000.0,209A PUNGGOL PL,821209,1.39973067460365,103.900732056743
191132,2024-10,PUNGGOL,5 ROOM,126A,EDGEDALE PLAINS,10 TO 12,110.0,Improved,2003,77 years 06 months,620000.0,126A EDGEDALE PLAINS,821126,1.39410054969153,103.911356165393
191133,2024-10,PUNGGOL,5 ROOM,178,EDGEFIELD PLAINS,07 TO 09,110.0,Premium Apartment,2003,78 years 02 months,632000.0,178 EDGEFIELD PLAINS,820178,1.39940654439881,103.908430998774
191138,2024-10,PUNGGOL,5 ROOM,170A,PUNGGOL FIELD,01 TO 03,112.0,Improved,2014,88 years 07 months,668000.0,170A PUNGGOL FIELD,821170,1.39356094752398,103.914860704891
191151,2024-10,QUEENSTOWN,4 ROOM,10,HOLLAND AVE,13 TO 15,88.0,Improved,1975,49 years 04 months,612000.0,10 HOLLAND AVE,271010,1.30814997104791,103.794275184926
191153,2024-10,QUEENSTOWN,4 ROOM,51,STRATHMORE AVE,19 TO 21,90.0,Model A,2006,81 years 02 months,925000.0,51 STRATHMORE AVE,140051,1.29335856548885,103.808799765341
191154,2024-10,QUEENSTOWN,5 ROOM,13,DOVER CL EAST,13 TO 15,119.0,Standard,1978,52 years 04 months,926888.0,13 DOVER CL EAST,130013,1.30537011229366,103.786079519406
191161,2024-10,SEMBAWANG,3 ROOM,117A,CANBERRA CRES,04 TO 06,68.0,Model A,2020,94 years 08 months,510000.0,117A CANBERRA CRES,751117,1.44497965573574,103.830518633862
191172,2024-10,SEMBAWANG,4 ROOM,340A,SEMBAWANG CL,04 TO 06,95.0,Premium Apartment,2001,75 years 09 months,570000.0,340A SEMBAWANG CL,751340,1.44753390062501,103.81789234547
191177,2024-10,SENGKANG,3 ROOM,289B,COMPASSVALE CRES,13 TO 15,68.0,Premium Apartment,2017,92 years 02 months,510000.0,289B COMPASSVALE CRES,542289,1.39767657110085,103.897388441126
191184,2024-10,SENGKANG,4 ROOM,333B,ANCHORVALE LINK,13 TO 15,92.0,Model A,2015,89 years 09 months,650000.0,333B ANCHORVALE LINK,542333,1.39457895953303,103.891425367847
191187,2024-10,SENGKANG,4 ROOM,212C,COMPASSVALE DR,04 TO 06,98.0,Premium Apartment,2012,87 years 01 month,630000.0,212C COMPASSVALE DR,543212,1.38599316874489,103.901020686547
191189,2024-10,SENGKANG,4 ROOM,269A,COMPASSVALE LINK,07 TO 09,90.0,Premium Apartment,2006,80 years 05 months,658888.0,269A COMPASSVALE LINK,541269,1.3837150052578,103.895589036405
191193,2024-10,SENGKANG,4 ROOM,418C,FERNVALE LINK,13 TO 15,94.0,Model A,2018,92 years 10 months,668000.0,418C FERNVALE LINK,793418,1.39095014768306,103.881014689387
191204,2024-10,SENGKANG,5 ROOM,309C,ANCHORVALE RD,16 TO 18,112.0,Premium Apartment,2002,77 years 02 months,630000.0,309C ANCHORVALE RD,543309,1.39109822389481,103.885761221121
191212,2024-10,SENGKANG,5 ROOM,159A,RIVERVALE CRES,16 TO 18,111.0,Premium Apartment,2003,78 years 01 month,658000.0,159A RIVERVALE CRES,541159,1.38786019069673,103.907289614514
191215,2024-10,SENGKANG,EXECUTIVE,310B,ANCHORVALE RD,07 TO 09,128.0,Premium Apartment,2003,77 years 04 months,790000.0,310B ANCHORVALE RD,542310,1.39090460679765,103.884682862492
191216,2024-10,SENGKANG,EXECUTIVE,250A,COMPASSVALE ST,13 TO 15,131.0,Apartment,2000,74 years 10 months,958000.0,250A COMPASSVALE ST,541250,1.39168319471196,103.899880323417
191217,2024-10,SENGKANG,EXECUTIVE,138,RIVERVALE ST,10 TO 12,141.0,Apartment,1999,73 years 04 months,840000.0,138 RIVERVALE ST,540138,1.38864118996622,103.904623542393
191219,2024-10,SERANGOON,3 ROOM,1,LOR LEW LIAN,10 TO 12,73.0,Improved,1978,52 years 09 months,458000.0,1 LOR LEW LIAN,531001,1.35086712646948,103.875343939672
191222,2024-10,SERANGOON,4 ROOM,325,SERANGOON AVE 3,07 TO 09,84.0,Simplified,1986,60 years 08 months,640000.0,325 SERANGOON AVE 3,550325,1.35093759016541,103.868683014792
191224,2024-10,SERANGOON,4 ROOM,536,SERANGOON NTH AVE 4,10 TO 12,103.0,Model A,1992,67 years 02 months,608888.0,536 SERANGOON NTH AVE 4,550536,1.3738757370708,103.875172781418
191227,2024-10,TAMPINES,3 ROOM,907,TAMPINES AVE 4,07 TO 09,73.0,Model A,1984,59 years 01 month,485000.0,907 TAMPINES AVE 4,520907,1.35061228147276,103.939397414558
191228,2024-10,TAMPINES,3 ROOM,879B,TAMPINES AVE 8,10 TO 12,68.0,Model A,2017,91 years 09 months,560000.0,879B TAMPINES AVE 8,522879,1.35158903554129,103.928804430639
191234,2024-10,TAMPINES,3 ROOM,275,TAMPINES ST 22,07 TO 09,73.0,Model A,1985,59 years 04 months,458000.0,275 TAMPINES ST 22,520275,1.34781303677538,103.950409276356
191241,2024-10,TAMPINES,4 ROOM,610C,TAMPINES NTH DR 1,07 TO 09,93.0,Model A,2020,95 years 01 month,758000.0,610C TAMPINES NTH DR 1,523610,1.36441776002022,103.935558340158
191247,2024-10,TAMPINES,4 ROOM,358,TAMPINES ST 33,04 TO 06,107.0,Model A,1996,70 years 06 months,624000.0,358 TAMPINES ST 33,520358,1.35447447997889,103.96100415175
191249,2024-10,TAMPINES,4 ROOM,449,TAMPINES ST 42,10 TO 12,84.0,Simplified,1985,59 years 08 months,543000.0,449 TAMPINES ST 42,520449,1.35702424225032,103.951054363893
191250,2024-10,TAMPINES,4 ROOM,605A,TAMPINES ST 61,16 TO 18,92.0,Model A,2020,94 years 05 months,820000.0,605A TAMPINES ST 61,521605,1.36240981026353,103.935600500968
191251,2024-10,TAMPINES,4 ROOM,722,TAMPINES ST 72,01 TO 03,99.0,Model A,1997,71 years 07 months,620000.0,722 TAMPINES ST 72,520722,1.35989254496234,103.935859341782
191252,2024-10,TAMPINES,4 ROOM,842C,TAMPINES ST 82,10 TO 12,108.0,Model A,1995,69 years 06 months,698800.0,842C TAMPINES ST 82,523842,1.35092895351478,103.936758459605
191254,2024-10,TAMPINES,4 ROOM,837,TAMPINES ST 83,07 TO 09,84.0,Simplified,1985,59 years 06 months,530000.0,837 TAMPINES ST 83,520837,1.35088781368026,103.934458619058
191256,2024-10,TAMPINES,4 ROOM,935,TAMPINES ST 91,07 TO 09,106.0,Model A,1984,59 years,645000.0,935 TAMPINES ST 91,520935,1.34574577748224,103.941348203942
191263,2024-10,TAMPINES,5 ROOM,605A,TAMPINES ST 61,07 TO 09,112.0,Improved,2020,94 years 05 months,908000.0,605A TAMPINES ST 61,521605,1.36240981026353,103.935600500968
191266,2024-10,TAMPINES,EXECUTIVE,331,TAMPINES ST 32,01 TO 03,147.0,Maisonette,1996,70 years 04 months,850000.0,331 TAMPINES ST 32,520331,1.35335621064813,103.959788744545
191268,2024-10,TAMPINES,EXECUTIVE,894,TAMPINES ST 81,01 TO 03,146.0,Maisonette,1989,63 years 04 months,940000.0,894 TAMPINES ST 81,520894,1.34860420057258,103.931922138374
191270,2024-10,TAMPINES,EXECUTIVE,867A,TAMPINES ST 83,04 TO 06,149.0,Maisonette,1989,63 years 05 months,990000.0,867A TAMPINES ST 83,521867,1.35570643617712,103.933753485939
191274,2024-10,TOA PAYOH,3 ROOM,114,LOR 1 TOA PAYOH,01 TO 03,65.0,Improved,1967,41 years 09 months,385000.0,114 LOR 1 TOA PAYOH,310114,1.34094034792461,103.844305919348
191276,2024-10,TOA PAYOH,3 ROOM,9,LOR 7 TOA PAYOH,04 TO 06,66.0,Improved,1970,44 years 10 months,385000.0,9 LOR 7 TOA PAYOH,310009,1.337504820026,103.857839466376
191282,2024-10,TOA PAYOH,4 ROOM,7,UPP ALJUNIED LANE,16 TO 18,93.0,Model A,2017,91 years 05 months,926668.0,7 UPP ALJUNIED LANE,360007,1.33471455041652,103.878708329058
191283,2024-10,TOA PAYOH,5 ROOM,105A,BIDADARI PK DR,13 TO 15,113.0,Improved,2020,94 years 11 months,1300000.0,105A BIDADARI PK DR,341105,1.33400699237548,103.870430572231
191284,2024-10,TOA PAYOH,5 ROOM,105B,BIDADARI PK DR,07 TO 09,114.0,Improved,2020,94 years 11 months,1220000.0,105B BIDADARI PK DR,342105,1.33347403879152,103.870490405284
191287,2024-10,WOODLANDS,2 ROOM,573C,WOODLANDS DR 16,13 TO 15,47.0,Model A,2018,92 years 09 months,370000.0,573C WOODLANDS DR 16,733573,1.43050173672501,103.797682947729
191292,2024-10,WOODLANDS,3 ROOM,160,WOODLANDS ST 13,10 TO 12,73.0,Model A,1990,64 years 08 months,455000.0,160 WOODLANDS ST 13,730160,1.43333328424957,103.774921567416
191295,2024-10,WOODLANDS,4 ROOM,205,MARSILING DR,07 TO 09,94.0,New Generation,1980,55 years 01 month,450000.0,205 MARSILING DR,730205,1.4449461460443,103.773484126567
191297,2024-10,WOODLANDS,4 ROOM,782E,WOODLANDS CRES,13 TO 15,92.0,Model A,2015,89 years 09 months,580000.0,782E WOODLANDS CRES,735782,1.44805153860282,103.802708834923
191300,2024-10,WOODLANDS,4 ROOM,544,WOODLANDS DR 16,10 TO 12,100.0,Model A,2000,74 years 10 months,600000.0,544 WOODLANDS DR 16,730544,1.42861904395589,103.793093320128
191301,2024-10,WOODLANDS,4 ROOM,624A,WOODLANDS DR 52,01 TO 03,100.0,Model A,1998,73 years 01 month,510000.0,624A WOODLANDS DR 52,731624,1.43433582747728,103.799667122109
191302,2024-10,WOODLANDS,4 ROOM,689E,WOODLANDS DR 75,13 TO 15,90.0,Premium Apartment,2004,78 years 06 months,535000.0,689E WOODLANDS DR 75,735689,1.44392045317552,103.808674247275
191312,2024-10,WOODLANDS,5 ROOM,572B,WOODLANDS AVE 1,10 TO 12,112.0,Improved,2013,88 years 03 months,715000.0,572B WOODLANDS AVE 1,732572,1.43160689427922,103.789608911068
191316,2024-10,WOODLANDS,5 ROOM,502,WOODLANDS DR 14,01 TO 03,123.0,Improved,1998,73 years 02 months,620000.0,502 WOODLANDS DR 14,730502,1.43318008766271,103.791790437361
191317,2024-10,WOODLANDS,5 ROOM,506,WOODLANDS DR 14,01 TO 03,121.0,Improved,1999,73 years 04 months,645000.0,506 WOODLANDS DR 14,730506,1.43244170448861,103.790863803202
191327,2024-10,WOODLANDS,EXECUTIVE,670,WOODLANDS DR 71,04 TO 06,130.0,Apartment,2000,74 years 10 months,760000.0,670 WOODLANDS DR 71,730670,1.43882635430604,103.799297445551
191332,2024-10,YISHUN,3 ROOM,111,YISHUN RING RD,07 TO 09,67.0,New Generation,1982,56 years 09 months,403000.0,111 YISHUN RING RD,760111,1.43321263970177,103.828617498413
191333,2024-10,YISHUN,3 ROOM,354,YISHUN RING RD,07 TO 09,74.0,Model A,1989,63 years 05 months,423500.0,354 YISHUN RING RD,760354,1.4257859727303,103.845228101102
191337,2024-10,YISHUN,4 ROOM,431D,YISHUN AVE 1,01 TO 03,92.0,Model A,2015,90 years,555888.0,431D YISHUN AVE 1,764431,1.4199690584837,103.846969476811
191341,2024-10,YISHUN,4 ROOM,674A,YISHUN AVE 4,13 TO 15,93.0,Model A,2018,93 years 02 months,633000.0,674A YISHUN AVE 4,761674,1.42064299685012,103.843114007721
191342,2024-10,YISHUN,4 ROOM,404,YISHUN AVE 6,10 TO 12,84.0,Simplified,1988,63 years 01 month,455000.0,404 YISHUN AVE 6,760404,1.42657680751384,103.84814422982
191347,2024-10,YISHUN,4 ROOM,504D,YISHUN ST 51,07 TO 09,93.0,Model A,2016,90 years 06 months,618888.0,504D YISHUN ST 51,764504,1.41833362541375,103.843721655882
191348,2024-10,YISHUN,5 ROOM,785,YISHUN AVE 2,01 TO 03,121.0,Improved,1988,62 years 08 months,630000.0,785 YISHUN AVE 2,760785,1.42140901096648,103.833970980379
190831,2024-10,ANG MO KIO,3 ROOM,235,ANG MO KIO AVE 3,04 TO 06,82.0,New Generation,1977,52 years,512000.0,235 ANG MO KIO AVE 3,560235,1.36682360872342,103.83649123351
190837,2024-10,ANG MO KIO,4 ROOM,229,ANG MO KIO AVE 3,07 TO 09,91.0,New Generation,1978,52 years 04 months,560888.0,229 ANG MO KIO AVE 3,560229,1.36907645907976,103.838228660084
190846,2024-10,ANG MO KIO,5 ROOM,588D,ANG MO KIO ST 52,04 TO 06,117.0,DBSS,2011,85 years 11 months,1188800.0,588D ANG MO KIO ST 52,564588,1.37175400663025,103.8538833087
190847,2024-10,ANG MO KIO,5 ROOM,596C,ANG MO KIO ST 52,10 TO 12,110.0,Improved,2002,77 years 03 months,960000.0,596C ANG MO KIO ST 52,563596,1.37193571932413,103.85014325987
190848,2024-10,ANG MO KIO,EXECUTIVE,104A,ANG MO KIO ST 11,07 TO 09,146.0,Apartment,1996,70 years 08 months,1200000.0,104A ANG MO KIO ST 11,560104,1.37182700854497,103.838803655863
190856,2024-10,BEDOK,3 ROOM,501,BEDOK NTH ST 3,04 TO 06,59.0,Improved,1978,52 years 07 months,380000.0,501 BEDOK NTH ST 3,460501,1.33164071248973,103.931167665142
190865,2024-10,BEDOK,4 ROOM,125,BEDOK RESERVOIR RD,07 TO 09,103.0,Model A,1987,61 years 10 months,660000.0,125 BEDOK RESERVOIR RD,470125,1.33295993404917,103.909904762523
190884,2024-10,BUKIT BATOK,2 ROOM,439A,BT BATOK WEST AVE 8,04 TO 06,47.0,Model A,2020,94 years 06 months,345000.0,439A BT BATOK WEST AVE 8,651439,1.35682160436271,103.740330543468
190895,2024-10,BUKIT BATOK,3 ROOM,205,BT BATOK ST 21,04 TO 06,73.0,Model A,1985,59 years 06 months,450000.0,205 BT BATOK ST 21,650205,1.34712172862216,103.750057276189
190896,2024-10,BUKIT BATOK,3 ROOM,224,BT BATOK ST 21,01 TO 03,67.0,New Generation,1984,59 years 04 months,378000.0,224 BT BATOK ST 21,650224,1.34772275800146,103.752567106833
190899,2024-10,BUKIT BATOK,3 ROOM,505,BT BATOK ST 52,07 TO 09,60.0,Improved,1988,62 years 05 months,355000.0,505 BT BATOK ST 52,650505,1.35191995209035,103.753670851157
190907,2024-10,BUKIT BATOK,4 ROOM,288D,BT BATOK ST 25,10 TO 12,92.0,Model A2,1998,72 years 07 months,580000.0,288D BT BATOK ST 25,653288,1.34580304817683,103.759260051639
190911,2024-10,BUKIT BATOK,4 ROOM,437A,BT BATOK WEST AVE 5,07 TO 09,93.0,Model A,2020,94 years 05 months,650888.0,437A BT BATOK WEST AVE 5,651437,1.35817033364294,103.739219664469
190927,2024-10,BUKIT BATOK,EXECUTIVE,404,BT BATOK WEST AVE 7,13 TO 15,143.0,Apartment,1993,67 years 07 months,822888.0,404 BT BATOK WEST AVE 7,650404,1.36551707909265,103.745143912983
190928,2024-10,BUKIT MERAH,1 ROOM,7,TELOK BLANGAH CRES,04 TO 06,31.0,Improved,1975,49 years 06 months,280000.0,7 TELOK BLANGAH CRES,90007,1.27836137310785,103.819384010497
190932,2024-10,BUKIT MERAH,3 ROOM,129,BT MERAH VIEW,04 TO 06,76.0,Improved,1973,47 years 10 months,425000.0,129 BT MERAH VIEW,150129,1.28357870505897,103.823819207962
190938,2024-10,BUKIT MERAH,3 ROOM,91A,TELOK BLANGAH ST 31,25 TO 27,68.0,Model A,2018,93 years 03 months,755000.0,91A TELOK BLANGAH ST 31,101091,1.27666192078908,103.807127959576
190940,2024-10,BUKIT MERAH,4 ROOM,103,BT PURMEI RD,01 TO 03,93.0,New Generation,1982,57 years 03 months,615000.0,103 BT PURMEI RD,90103,1.27208558524996,103.825495615402
190945,2024-10,BUKIT MERAH,4 ROOM,127D,KIM TIAN RD,07 TO 09,93.0,Model A,2013,87 years 05 months,950000.0,127D KIM TIAN RD,164127,1.28111980555052,103.829943174928
190978,2024-10,CENTRAL AREA,5 ROOM,1E,CANTONMENT RD,40 TO 42,107.0,Type S2,2011,85 years 04 months,1466000.0,1E CANTONMENT RD,85501,1.27662168427368,103.841156142262
190982,2024-10,CHOA CHU KANG,4 ROOM,808A,CHOA CHU KANG AVE 1,04 TO 06,92.0,Model A,2017,91 years 07 months,588888.0,808A CHOA CHU KANG AVE 1,681808,1.3754798756659,103.745373277908
190991,2024-10,CHOA CHU KANG,4 ROOM,656,CHOA CHU KANG CRES,04 TO 06,104.0,Premium Apartment,1999,73 years 07 months,510000.0,656 CHOA CHU KANG CRES,680656,1.40021628497652,103.750393021939
191003,2024-10,CHOA CHU KANG,5 ROOM,683A,CHOA CHU KANG CRES,01 TO 03,111.0,Improved,2002,76 years 10 months,517000.0,683A CHOA CHU KANG CRES,681683,1.40385480382021,103.745492505499
191004,2024-10,CHOA CHU KANG,5 ROOM,691A,CHOA CHU KANG CRES,16 TO 18,110.0,Improved,2003,77 years 09 months,580000.0,691A CHOA CHU KANG CRES,681691,1.40115779753494,103.751471709468
191006,2024-10,CHOA CHU KANG,5 ROOM,687B,CHOA CHU KANG DR,10 TO 12,110.0,Improved,2002,76 years 09 months,563000.0,687B CHOA CHU KANG DR,682687,1.40440569281917,103.750668870917
191008,2024-10,CHOA CHU KANG,5 ROOM,803D,KEAT HONG CL,10 TO 12,113.0,Improved,2017,91 years 08 months,670000.0,803D KEAT HONG CL,684803,1.37289698327409,103.744347570659
191011,2024-10,CHOA CHU KANG,EXECUTIVE,109,TECK WHYE LANE,04 TO 06,146.0,Maisonette,1989,63 years 06 months,768000.0,109 TECK WHYE LANE,680109,1.37865989251211,103.752077659463
191013,2024-10,CLEMENTI,3 ROOM,440A,CLEMENTI AVE 3,22 TO 24,69.0,Model A,2018,92 years 11 months,840000.0,440A CLEMENTI AVE 3,121440,1.31599867398385,103.764197624976
191043,2024-10,HOUGANG,5 ROOM,926,HOUGANG ST 91,04 TO 06,120.0,Improved,1998,72 years 10 months,730000.0,926 HOUGANG ST 91,530926,1.37610015874638,103.880942241584
191045,2024-10,JURONG EAST,2 ROOM,371,JURONG EAST ST 32,01 TO 03,44.0,Model A,2014,88 years 05 months,328000.0,371 JURONG EAST ST 32,600371,1.3483083591294,103.731919903016
191054,2024-10,JURONG EAST,4 ROOM,218,JURONG EAST ST 21,01 TO 03,92.0,New Generation,1984,59 years 02 months,525000.0,218 JURONG EAST ST 21,600218,1.34033241177285,103.737928007136
191057,2024-10,JURONG EAST,4 ROOM,280,TOH GUAN RD,10 TO 12,90.0,Model A2,1998,73 years,560000.0,280 TOH GUAN RD,600280,1.34046486754645,103.747294159262
191080,2024-10,JURONG WEST,4 ROOM,667C,JURONG WEST ST 65,07 TO 09,90.0,Model A,2000,74 years 10 months,545000.0,667C JURONG WEST ST 65,643667,1.34114842114912,103.702295748842
191093,2024-10,JURONG WEST,5 ROOM,271C,JURONG WEST ST 24,04 TO 06,112.0,Premium Apartment,2003,78 years 01 month,560000.0,271C JURONG WEST ST 24,643271,1.35015314493401,103.704293139292
191099,2024-10,JURONG WEST,5 ROOM,660D,JURONG WEST ST 64,10 TO 12,110.0,Improved,2001,76 years 01 month,620000.0,660D JURONG WEST ST 64,644660,1.33638400961294,103.703382722652
191106,2024-10,JURONG WEST,5 ROOM,166A,YUNG KUANG RD,07 TO 09,113.0,Improved,2018,93 years 02 months,706000.0,166A YUNG KUANG RD,611166,1.33128810212915,103.721959330636
191110,2024-10,JURONG WEST,EXECUTIVE,828A,JURONG WEST ST 81,01 TO 03,149.0,Maisonette,1993,67 years 09 months,780000.0,828A JURONG WEST ST 81,641828,1.34502198138422,103.693526129252
191116,2024-10,KALLANG/WHAMPOA,3 ROOM,40,JLN BAHAGIA,01 TO 03,90.8,Terrace,1972,46 years 10 months,930000.0,40 JLN BAHAGIA,320040,1.32729054087445,103.856217673836
191131,2024-10,KALLANG/WHAMPOA,4 ROOM,101,WHAMPOA DR,07 TO 09,91.0,Improved,1974,48 years 06 months,490000.0,101 WHAMPOA DR,323101,1.32041710187602,103.853813946402
191136,2024-10,MARINE PARADE,3 ROOM,47,MARINE CRES,01 TO 03,65.0,Improved,1975,49 years 09 months,392000.0,47 MARINE CRES,440047,1.30572354541959,103.91253050447
191137,2024-10,MARINE PARADE,4 ROOM,17,MARINE TER,04 TO 06,82.0,Improved,1975,49 years 06 months,533000.0,17 MARINE TER,440017,1.30376782197877,103.914176046886
191140,2024-10,PASIR RIS,4 ROOM,143,PASIR RIS ST 11,01 TO 03,109.0,Model A,1995,69 years 04 months,558000.0,143 PASIR RIS ST 11,510143,1.36198405238232,103.960695828184
191154,2024-10,PUNGGOL,3 ROOM,601C,PUNGGOL CTRL,07 TO 09,70.0,Model A,2012,86 years 11 months,522888.0,601C PUNGGOL CTRL,823601,1.40267896973516,103.908106143006
191156,2024-10,PUNGGOL,3 ROOM,208A,PUNGGOL PL,13 TO 15,67.0,Model A,2014,88 years 09 months,533000.0,208A PUNGGOL PL,821208,1.40146324574732,103.900761051711
191170,2024-10,PUNGGOL,4 ROOM,637C,PUNGGOL DR,16 TO 18,91.0,Premium Apartment,2005,79 years 04 months,593000.0,637C PUNGGOL DR,823637,1.39917980664379,103.915006560993
191183,2024-10,PUNGGOL,5 ROOM,662C,EDGEDALE PLAINS,04 TO 06,112.0,Premium Apartment,2017,91 years 08 months,806000.0,662C EDGEDALE PLAINS,823662,1.40139181635046,103.918513893557
191186,2024-10,PUNGGOL,5 ROOM,192,PUNGGOL CTRL,04 TO 06,112.0,Premium Apartment,2004,78 years 08 months,615000.0,192 PUNGGOL CTRL,820192,1.39977092552222,103.90951433139
191188,2024-10,PUNGGOL,5 ROOM,618B,PUNGGOL DR,04 TO 06,120.0,Premium Apartment,2013,88 years,798000.0,618B PUNGGOL DR,822618,1.40146581977448,103.9121219516
191189,2024-10,PUNGGOL,5 ROOM,642D,PUNGGOL DR,04 TO 06,110.0,Premium Apartment,2005,79 years 04 months,645000.0,642D PUNGGOL DR,824642,1.39879750995963,103.915845691856
191193,2024-10,PUNGGOL,5 ROOM,102D,PUNGGOL FIELD,04 TO 06,110.0,Improved,2002,77 years 02 months,670000.0,102D PUNGGOL FIELD,824102,1.39848070795436,103.905249752459
191214,2024-10,SEMBAWANG,2 ROOM,131B,CANBERRA CRES,04 TO 06,47.0,Model A,2020,95 years,395000.0,131B CANBERRA CRES,752131,1.4441465844546,103.830857595253
191217,2024-10,SEMBAWANG,2 ROOM,363A,SEMBAWANG CRES,10 TO 12,47.0,Model A,2019,93 years 08 months,358000.0,363A SEMBAWANG CRES,751363,1.44576016585328,103.814267716736
191220,2024-10,SEMBAWANG,3 ROOM,117B,CANBERRA CRES,07 TO 09,68.0,Model A,2020,94 years 08 months,540000.0,117B CANBERRA CRES,752117,1.4447956978802,103.830159588142
191233,2024-10,SEMBAWANG,5 ROOM,504B,MONTREAL DR,07 TO 09,110.0,Improved,2001,75 years 09 months,610000.0,504B MONTREAL DR,752504,1.45088207954215,103.823325694936
191240,2024-10,SENGKANG,3 ROOM,435B,FERNVALE RD,13 TO 15,68.0,Premium Apartment,2013,87 years 09 months,513000.0,435B FERNVALE RD,792435,1.39339364366596,103.876644854346
191241,2024-10,SENGKANG,3 ROOM,447B,JLN KAYU,16 TO 18,67.0,Model A,2013,88 years 03 months,548888.0,447B JLN KAYU,792447,1.39246632922429,103.873207670352
191256,2024-10,SENGKANG,4 ROOM,470B,FERNVALE LINK,07 TO 09,93.0,Model A,2016,91 years,628888.0,470B FERNVALE LINK,792470,1.39687117865647,103.879859508141
191257,2024-10,SENGKANG,4 ROOM,410C,FERNVALE RD,25 TO 27,96.0,Premium Apartment,2012,87 years 02 months,660000.0,410C FERNVALE RD,793410,1.38993920373878,103.876479595851
191268,2024-10,SENGKANG,4 ROOM,432A,SENGKANG WEST WAY,04 TO 06,93.0,Model A,2014,89 years 01 month,600000.0,432A SENGKANG WEST WAY,791432,1.39475047645333,103.877202311729
191269,2024-10,SENGKANG,5 ROOM,302A,ANCHORVALE LINK,04 TO 06,110.0,Improved,2001,75 years 10 months,625000.0,302A ANCHORVALE LINK,541302,1.38756341803929,103.891211046862
191275,2024-10,SENGKANG,5 ROOM,236,COMPASSVALE WALK,13 TO 15,123.0,Improved,1999,73 years 10 months,690000.0,236 COMPASSVALE WALK,540236,1.3904871662738,103.899438527283
191288,2024-10,SERANGOON,3 ROOM,263,SERANGOON CTRL DR,04 TO 06,64.0,Simplified,1988,62 years 11 months,480888.0,263 SERANGOON CTRL DR,550263,1.35386322697735,103.871939623369
191294,2024-10,SERANGOON,5 ROOM,205,SERANGOON CTRL,04 TO 06,122.0,Improved,1986,61 years 02 months,975000.0,205 SERANGOON CTRL,550205,1.35278468169196,103.873446716868
191320,2024-10,TAMPINES,4 ROOM,489B,TAMPINES ST 45,07 TO 09,107.0,Model A,1993,68 years,618000.0,489B TAMPINES ST 45,521489,1.36132334023489,103.95746980781
191323,2024-10,TAMPINES,4 ROOM,888,TAMPINES ST 81,07 TO 09,108.0,Model A,1988,63 years 02 months,635000.0,888 TAMPINES ST 81,520888,1.35090347766615,103.931049949489
191330,2024-10,TAMPINES,5 ROOM,112,SIMEI ST 1,01 TO 03,122.0,Improved,1988,62 years 04 months,690800.0,112 SIMEI ST 1,520112,1.3431095844731,103.949559595972
191334,2024-10,TAMPINES,5 ROOM,496B,TAMPINES ST 43,07 TO 09,129.0,Improved,1993,67 years 11 months,740000.0,496B TAMPINES ST 43,525496,1.36123685622591,103.950996094324
191349,2024-10,TOA PAYOH,3 ROOM,157,LOR 1 TOA PAYOH,01 TO 03,67.0,Improved,1971,45 years 10 months,398000.0,157 LOR 1 TOA PAYOH,310157,1.33220626321248,103.845452861739
191352,2024-10,TOA PAYOH,3 ROOM,225,LOR 8 TOA PAYOH,10 TO 12,76.0,Improved,1976,50 years 08 months,418000.0,225 LOR 8 TOA PAYOH,310225,1.33950922302573,103.85564679729
191353,2024-10,TOA PAYOH,3 ROOM,25,TOA PAYOH EAST,01 TO 03,67.0,Improved,1971,45 years 04 months,358000.0,25 TOA PAYOH EAST,310025,1.33356606706026,103.856981751253
191359,2024-10,TOA PAYOH,4 ROOM,143,POTONG PASIR AVE 2,01 TO 03,104.0,Model A,1984,58 years 10 months,745000.0,143 POTONG PASIR AVE 2,350143,1.33290762111116,103.866168845292
191369,2024-10,WOODLANDS,3 ROOM,13,MARSILING LANE,10 TO 12,65.0,Improved,1976,50 years 06 months,355000.0,13 MARSILING LANE,730013,1.44109627463339,103.779276133737
191382,2024-10,WOODLANDS,4 ROOM,546,WOODLANDS DR 16,10 TO 12,100.0,Model A,2000,75 years,545000.0,546 WOODLANDS DR 16,730546,1.42970406750651,103.793970297136
191383,2024-10,WOODLANDS,4 ROOM,577,WOODLANDS DR 16,04 TO 06,91.0,Model A,2000,75 years 02 months,535000.0,577 WOODLANDS DR 16,730577,1.43096196421541,103.796544744793
191391,2024-10,WOODLANDS,4 ROOM,183C,WOODLANDS ST 13,01 TO 03,93.0,Model A,2019,94 years 01 month,615888.0,183C WOODLANDS ST 13,733183,1.43465687984813,103.776726754884
191396,2024-10,WOODLANDS,5 ROOM,123,MARSILING RISE,07 TO 09,121.0,Improved,1985,60 years 04 months,570000.0,123 MARSILING RISE,730123,1.43911242302221,103.778949135126
191398,2024-10,WOODLANDS,5 ROOM,758,WOODLANDS AVE 6,10 TO 12,122.0,Improved,1998,72 years 05 months,663000.0,758 WOODLANDS AVE 6,730758,1.44579329314903,103.795452666616
191407,2024-10,WOODLANDS,5 ROOM,681C,WOODLANDS DR 62,07 TO 09,120.0,Premium Apartment,2000,74 years 06 months,655000.0,681C WOODLANDS DR 62,733681,1.43978866052178,103.803120115597
191410,2024-10,WOODLANDS,5 ROOM,861,WOODLANDS ST 83,01 TO 03,129.0,Improved,1996,70 years 06 months,665000.0,861 WOODLANDS ST 83,730861,1.43966015258891,103.795235776713
191418,2024-10,YISHUN,3 ROOM,431C,YISHUN AVE 1,04 TO 06,67.0,Model A,2015,90 years,460000.0,431C YISHUN AVE 1,763431,1.42019719250114,103.84650450091
191421,2024-10,YISHUN,3 ROOM,172,YISHUN AVE 7,04 TO 06,64.0,Simplified,1988,62 years 10 months,385000.0,172 YISHUN AVE 7,760172,1.43660111000642,103.83109095206
191424,2024-10,YISHUN,3 ROOM,108,YISHUN RING RD,01 TO 03,67.0,New Generation,1985,59 years 04 months,380000.0,108 YISHUN RING RD,760108,1.43232355080911,103.829071971177
191434,2024-10,YISHUN,4 ROOM,403,YISHUN AVE 6,07 TO 09,84.0,Simplified,1988,63 years 02 months,472888.0,403 YISHUN AVE 6,760403,1.42693726397599,103.848553174584
191435,2024-10,YISHUN,4 ROOM,435,YISHUN AVE 6,01 TO 03,84.0,Simplified,1988,63 years,470000.0,435 YISHUN AVE 6,760435,1.42133227396902,103.847281046929
