_id,month,town,flat_type,block,street_name,storey_range,floor_area_sqm,flat_model,lease_commence_date,remaining_lease,resale_price,address,postal,latitude,longitude
201411,2025-03,ANG MO KIO,3 ROOM,558,ANG MO KIO AVE 10,01 TO 03,67.0,New Generation,1980,54 years 01 month,408000.0,558 ANG MO KIO AVE 10,560558,1.37123613284274,103.859192016193
201412,2025-03,ANG MO KIO,4 ROOM,304,ANG MO KIO AVE 1,10 TO 12,98.0,New Generation,1977,51 years 01 month,630000.0,304 ANG MO KIO AVE 1,560304,1.36628642816469,103.844994760928
201413,2025-03,BEDOK,3 ROOM,549,BEDOK NTH AVE 1,07 TO 09,67.0,New Generation,1984,58 years 08 months,420000.0,549 BEDOK NTH AVE 1,460549,1.33170722124155,103.926779952744
201414,2025-03,BEDOK,3 ROOM,529,BEDOK NTH ST 3,04 TO 06,68.0,New Generation,1979,53 years 06 months,370000.0,529 BEDOK NTH ST 3,460529,1.33426946144275,103.926542284602
201415,2025-03,BEDOK,3 ROOM,4,BEDOK STH AVE 1,01 TO 03,65.0,Improved,1976,49 years 11 months,370000.0,4 BEDOK STH AVE 1,460004,1.32248962296588,103.933405282585
201416,2025-03,BEDOK,5 ROOM,714,BEDOK RESERVOIR RD,10 TO 12,121.0,Improved,1980,54 years 10 months,788000.0,714 BEDOK RESERVOIR RD,470714,1.33703060322387,103.923284613437
201417,2025-03,BISHAN,5 ROOM,126,BISHAN ST 12,07 TO 09,121.0,Improved,1987,61 years 06 months,935000.0,126 BISHAN ST 12,570126,1.34627451305877,103.852083743726
201418,2025-03,BISHAN,5 ROOM,138,BISHAN ST 12,07 TO 09,119.0,Improved,1987,61 years 05 months,980000.0,138 BISHAN ST 12,570138,1.34476326355535,103.852206845531
201419,2025-03,BUKIT BATOK,3 ROOM,230,BT BATOK EAST AVE 3,04 TO 06,67.0,New Generation,1985,59 years 08 months,415000.0,230 BT BATOK EAST AVE 3,650230,1.34771540923723,103.754994802909
201420,2025-03,BUKIT BATOK,3 ROOM,235,BT BATOK EAST AVE 5,04 TO 06,69.0,New Generation,1985,59 years 05 months,390000.0,235 BT BATOK EAST AVE 5,650235,1.34848352110457,103.756300449103
201421,2025-03,BUKIT BATOK,3 ROOM,163,BT BATOK ST 11,10 TO 12,73.0,Model A,1985,59 years,433000.0,163 BT BATOK ST 11,650163,1.34814949552612,103.742658130106
201422,2025-03,BUKIT BATOK,4 ROOM,363,BT BATOK ST 31,07 TO 09,94.0,New Generation,1987,61 years 09 months,560088.0,363 BT BATOK ST 31,650363,1.36101444441179,103.74944732312
201423,2025-03,BUKIT BATOK,4 ROOM,312,BT BATOK ST 32,07 TO 09,93.0,New Generation,1985,59 years 06 months,535000.0,312 BT BATOK ST 32,650312,1.35987875096146,103.74733565667
201424,2025-03,BUKIT BATOK,4 ROOM,460A,BT BATOK WEST AVE 9,10 TO 12,93.0,Model A,2020,94 years 03 months,670888.0,460A BT BATOK WEST AVE 9,651460,1.35426046045608,103.739309747692
201425,2025-03,BUKIT MERAH,3 ROOM,55,HAVELOCK RD,22 TO 24,69.0,Model A,2013,87 years 03 months,820000.0,55 HAVELOCK RD,161055,1.29006686277944,103.829245853053
201426,2025-03,BUKIT MERAH,3 ROOM,145,JLN BT MERAH,01 TO 03,67.0,New Generation,1981,55 years 10 months,406888.0,145 JLN BT MERAH,160145,1.27729352946741,103.830515650322
201427,2025-03,BUKIT MERAH,3 ROOM,93B,TELOK BLANGAH ST 31,13 TO 15,68.0,Model A,2018,92 years 11 months,708000.0,93B TELOK BLANGAH ST 31,102093,1.27535722008159,103.807977257969
201428,2025-03,BUKIT MERAH,4 ROOM,121,KIM TIAN PL,01 TO 03,90.0,Model A,2001,75 years,815000.0,121 KIM TIAN PL,160121,1.28270270194687,103.828491163221
201429,2025-03,BUKIT MERAH,5 ROOM,26,TELOK BLANGAH CRES,04 TO 06,117.0,Standard,1975,49 years 05 months,738000.0,26 TELOK BLANGAH CRES,90026,1.27669324661085,103.818866609662
201430,2025-03,BUKIT PANJANG,2 ROOM,547C,SEGAR RD,13 TO 15,47.0,Model A,2015,89 years 06 months,355000.0,547C SEGAR RD,673547,1.38853827277489,103.768773256544
201431,2025-03,BUKIT PANJANG,3 ROOM,486,SEGAR RD,07 TO 09,67.0,Model A,2014,88 years 11 months,498000.0,486 SEGAR RD,670486,1.38924060817621,103.77162077126
201432,2025-03,BUKIT PANJANG,4 ROOM,486,SEGAR RD,04 TO 06,92.0,Model A,2014,88 years 10 months,606888.0,486 SEGAR RD,670486,1.38924060817621,103.77162077126
201433,2025-03,BUKIT PANJANG,5 ROOM,141,PETIR RD,01 TO 03,122.0,Improved,1988,62 years 08 months,610000.0,141 PETIR RD,670141,1.37587156219346,103.768135702472
201434,2025-03,BUKIT PANJANG,5 ROOM,474,SEGAR RD,01 TO 03,110.0,Premium Apartment,2003,76 years 11 months,556000.0,474 SEGAR RD,670474,1.38863382045337,103.772388280701
201435,2025-03,CENTRAL AREA,3 ROOM,4,TG PAGAR PLAZA,13 TO 15,59.0,Improved,1977,51 years,520000.0,4 TG PAGAR PLAZA,81004,1.27590520131404,103.842741240941
201436,2025-03,CENTRAL AREA,3 ROOM,536,UPP CROSS ST,10 TO 12,68.0,Improved,1981,55 years 04 months,610000.0,536 UPP CROSS ST,50536,1.28496279681204,103.845618260281
201437,2025-03,CHOA CHU KANG,EXECUTIVE,282,CHOA CHU KANG AVE 3,07 TO 09,146.0,Maisonette,1992,66 years 05 months,900000.0,282 CHOA CHU KANG AVE 3,680282,1.38025443409642,103.743214351168
201438,2025-03,CLEMENTI,3 ROOM,506,WEST COAST DR,10 TO 12,67.0,New Generation,1978,52 years 06 months,372000.0,506 WEST COAST DR,120506,1.31251696940456,103.760867377122
201439,2025-03,CLEMENTI,4 ROOM,418,CLEMENTI AVE 1,07 TO 09,100.0,Model A,2013,87 years 08 months,930000.0,418 CLEMENTI AVE 1,120418,1.31017571904177,103.77000324485
201440,2025-03,CLEMENTI,4 ROOM,312C,CLEMENTI AVE 4,34 TO 36,93.0,Model A,2017,91 years 06 months,1100000.0,312C CLEMENTI AVE 4,123312,1.31952267914453,103.764025116013
201441,2025-03,CLEMENTI,5 ROOM,114,CLEMENTI ST 13,04 TO 06,142.0,Model A-Maisonette,1984,58 years 08 months,1070000.0,114 CLEMENTI ST 13,120114,1.32391547713763,103.770629507887
201442,2025-03,GEYLANG,3 ROOM,67,CIRCUIT RD,10 TO 12,61.0,Standard,1969,42 years 11 months,360000.0,67 CIRCUIT RD,370067,1.32584857614009,103.887926514332
201443,2025-03,HOUGANG,2 ROOM,986A,BUANGKOK CRES,10 TO 12,47.0,Model A,2012,86 years 04 months,345000.0,986A BUANGKOK CRES,531986,1.3819169455989,103.87980371499
201444,2025-03,HOUGANG,3 ROOM,241,HOUGANG ST 22,04 TO 06,74.0,Model A,1985,59 years 04 months,455000.0,241 HOUGANG ST 22,530241,1.35650868784233,103.891840640482
201445,2025-03,HOUGANG,4 ROOM,689,HOUGANG ST 61,04 TO 06,103.0,Model A,1987,61 years 06 months,585888.0,689 HOUGANG ST 61,530689,1.3764920735414,103.885771949604
201446,2025-03,JURONG EAST,4 ROOM,288D,JURONG EAST ST 21,16 TO 18,104.0,Model A,2000,74 years 03 months,681000.0,288D JURONG EAST ST 21,604288,1.33972149048819,103.744090047822
201447,2025-03,JURONG EAST,4 ROOM,31,TEBAN GDNS RD,01 TO 03,99.0,New Generation,1981,55 years 05 months,472000.0,31 TEBAN GDNS RD,600031,1.32030814426975,103.738967733755
201448,2025-03,JURONG EAST,EXECUTIVE,51,TEBAN GDNS RD,04 TO 06,146.0,Maisonette,1986,60 years 06 months,785000.0,51 TEBAN GDNS RD,600051,1.32077270115681,103.737035273723
201449,2025-03,JURONG WEST,3 ROOM,209,BOON LAY PL,07 TO 09,65.0,Improved,1976,50 years 03 months,352000.0,209 BOON LAY PL,640209,1.34625797211644,103.715154716629
201450,2025-03,JURONG WEST,3 ROOM,209,BOON LAY PL,10 TO 12,65.0,Improved,1976,50 years 03 months,345000.0,209 BOON LAY PL,640209,1.34625797211644,103.715154716629
201451,2025-03,JURONG WEST,3 ROOM,211,BOON LAY PL,07 TO 09,74.0,Improved,1976,50 years 09 months,365000.0,211 BOON LAY PL,640211,1.34824122465841,103.7140978842
201452,2025-03,JURONG WEST,4 ROOM,697B,JURONG WEST CTRL 3,13 TO 15,83.0,Model A,2017,91 years 08 months,685000.0,697B JURONG WEST CTRL 3,642697,1.34067930866793,103.708445480847
201453,2025-03,JURONG WEST,4 ROOM,698C,JURONG WEST CTRL 3,10 TO 12,93.0,Model A,2017,91 years 08 months,780000.0,698C JURONG WEST CTRL 3,643698,1.34028016730054,103.707599009323
201454,2025-03,JURONG WEST,4 ROOM,657B,JURONG WEST ST 65,07 TO 09,91.0,Model A,2001,75 years 04 months,562088.0,657B JURONG WEST ST 65,642657,1.33596098683449,103.700840300361
201455,2025-03,JURONG WEST,4 ROOM,657B,JURONG WEST ST 65,13 TO 15,91.0,Model A,2001,75 years 04 months,573000.0,657B JURONG WEST ST 65,642657,1.33596098683449,103.700840300361
201456,2025-03,JURONG WEST,4 ROOM,735,JURONG WEST ST 75,04 TO 06,105.0,Model A,1995,69 years 06 months,530000.0,735 JURONG WEST ST 75,640735,1.3461552094198,103.701169369401
201457,2025-03,JURONG WEST,4 ROOM,987C,JURONG WEST ST 93,07 TO 09,93.0,Premium Apartment,2006,80 years 03 months,588000.0,987C JURONG WEST ST 93,643987,1.33661986539386,103.695091222904
201458,2025-03,JURONG WEST,5 ROOM,989B,JURONG WEST ST 93,07 TO 09,112.0,Premium Apartment,2008,82 years 07 months,631888.0,989B JURONG WEST ST 93,642989,1.33587253338167,103.694838223367
201459,2025-03,KALLANG/WHAMPOA,3 ROOM,25A,ST. GEORGE'S LANE,10 TO 12,68.0,Model A,2020,94 years 03 months,790000.0,25A ST. GEORGE'S LANE,321025,1.32183662062012,103.861839161245
201460,2025-03,KALLANG/WHAMPOA,3 ROOM,25A,ST. GEORGE'S LANE,16 TO 18,68.0,Model A,2020,94 years 03 months,805000.0,25A ST. GEORGE'S LANE,321025,1.32183662062012,103.861839161245
201461,2025-03,KALLANG/WHAMPOA,4 ROOM,15,FARRER PK RD,19 TO 21,76.0,Model A,2004,78 years 04 months,785000.0,15 FARRER PK RD,210015,1.31104346812009,103.851660614786
201462,2025-03,KALLANG/WHAMPOA,5 ROOM,48,DORSET RD,13 TO 15,119.0,Standard,1976,50 years 06 months,680000.0,48 DORSET RD,210048,1.31424121019586,103.850622812848
201463,2025-03,MARINE PARADE,4 ROOM,19,MARINE TER,01 TO 03,88.0,Improved,1975,48 years 11 months,580000.0,19 MARINE TER,440019,1.30452210196584,103.915054010998
201464,2025-03,PASIR RIS,EXECUTIVE,128,PASIR RIS ST 11,01 TO 03,146.0,Maisonette,1988,62 years 10 months,843000.0,128 PASIR RIS ST 11,510128,1.36607200208533,103.955614245139
201465,2025-03,PASIR RIS,EXECUTIVE,129,PASIR RIS ST 11,04 TO 06,146.0,Maisonette,1988,62 years 10 months,910000.0,129 PASIR RIS ST 11,510129,1.36651869673449,103.955623402655
201466,2025-03,PASIR RIS,EXECUTIVE,243,PASIR RIS ST 21,07 TO 09,145.0,Apartment,1993,67 years 05 months,815000.0,243 PASIR RIS ST 21,510243,1.37155210403562,103.962993228282
201467,2025-03,PUNGGOL,3 ROOM,613C,PUNGGOL DR,07 TO 09,68.0,Model A,2012,86 years 10 months,528000.0,613C PUNGGOL DR,823613,1.40398321711595,103.908663894394
201468,2025-03,PUNGGOL,4 ROOM,671A,EDGEFIELD PLAINS,07 TO 09,90.0,Model A,2015,89 years 11 months,655000.0,671A EDGEFIELD PLAINS,821671,1.40605924173081,103.912020670376
201469,2025-03,PUNGGOL,4 ROOM,268C,PUNGGOL FIELD,13 TO 15,95.0,Premium Apartment,2013,86 years 11 months,758888.0,268C PUNGGOL FIELD,823268,1.40347414894291,103.897938437602
201470,2025-03,PUNGGOL,4 ROOM,604A,PUNGGOL RD,07 TO 09,92.0,Model A,2012,86 years 07 months,660000.0,604A PUNGGOL RD,821604,1.40430971677833,103.907412637205
201471,2025-03,PUNGGOL,4 ROOM,322C,SUMANG WALK,04 TO 06,93.0,Premium Apartment,2019,93 years 01 month,646722.0,322C SUMANG WALK,823322,1.41051905118907,103.896581361899
201472,2025-03,QUEENSTOWN,3 ROOM,167,STIRLING RD,04 TO 06,60.0,Improved,1971,45 years,360000.0,167 STIRLING RD,140167,1.29003092983174,103.80260432134
201473,2025-03,SEMBAWANG,4 ROOM,467B,ADMIRALTY DR,04 TO 06,102.0,Premium Apartment,2001,75 years 06 months,540000.0,467B ADMIRALTY DR,752467,1.45114148417526,103.813629843094
201474,2025-03,SEMBAWANG,4 ROOM,102A,CANBERRA ST,16 TO 18,93.0,Model A,2020,94 years 11 months,685000.0,102A CANBERRA ST,751102,1.45119390519494,103.832227554636
201475,2025-03,SEMBAWANG,4 ROOM,103A,CANBERRA ST,04 TO 06,93.0,Model A,2020,94 years 10 months,620000.0,103A CANBERRA ST,751103,1.45103006132424,103.830534008712
201476,2025-03,SEMBAWANG,4 ROOM,590C,MONTREAL LINK,04 TO 06,93.0,Model A,2015,89 years 02 months,575888.0,590C MONTREAL LINK,753590,1.44994314368403,103.82672063438
201477,2025-03,SEMBAWANG,4 ROOM,508B,WELLINGTON CIRCLE,13 TO 15,90.0,Model A,2004,78 years 07 months,562388.0,508B WELLINGTON CIRCLE,752508,1.45262510110474,103.820909521779
201478,2025-03,SEMBAWANG,5 ROOM,120B,CANBERRA CRES,10 TO 12,113.0,Improved,2018,92 years 01 month,815000.0,120B CANBERRA CRES,752120,1.44629377124154,103.83270384797
201479,2025-03,SEMBAWANG,5 ROOM,101A,CANBERRA ST,10 TO 12,113.0,Improved,2020,94 years 11 months,808888.0,101A CANBERRA ST,751101,1.45173892803325,103.83045410628
201480,2025-03,SEMBAWANG,EXECUTIVE,588B,MONTREAL DR,04 TO 06,125.0,Apartment,2002,76 years 10 months,735000.0,588B MONTREAL DR,752588,1.45043745007348,103.825135383691
201481,2025-03,SENGKANG,4 ROOM,267B,COMPASSVALE LINK,16 TO 18,90.0,Premium Apartment,2006,80 years 01 month,720000.0,267B COMPASSVALE LINK,542267,1.38319999468029,103.897433235307
201482,2025-03,SENGKANG,4 ROOM,116C,RIVERVALE DR,13 TO 15,95.0,Model A,2000,74 years 05 months,580888.0,116C RIVERVALE DR,543116,1.38215509990243,103.902852237154
201483,2025-03,SENGKANG,4 ROOM,455B,SENGKANG WEST AVE,13 TO 15,93.0,Model A,2020,94 years 07 months,670000.0,455B SENGKANG WEST AVE,792455,1.39201619223955,103.870247728472
201484,2025-03,SENGKANG,4 ROOM,458A,SENGKANG WEST RD,04 TO 06,93.0,Model A,2020,94 years 08 months,640000.0,458A SENGKANG WEST RD,791458,1.39296840561775,103.869572197299
201485,2025-03,SENGKANG,5 ROOM,312A,ANCHORVALE LANE,13 TO 15,113.0,Premium Apartment,2002,76 years 10 months,688000.0,312A ANCHORVALE LANE,541312,1.39173374169872,103.885155624264
201486,2025-03,SENGKANG,5 ROOM,458A,SENGKANG WEST RD,10 TO 12,113.0,Improved,2020,94 years 08 months,782000.0,458A SENGKANG WEST RD,791458,1.39296840561775,103.869572197299
201487,2025-03,SENGKANG,5 ROOM,458B,SENGKANG WEST RD,07 TO 09,113.0,Improved,2020,94 years 08 months,775000.0,458B SENGKANG WEST RD,792458,1.39293801208567,103.870196701638
201488,2025-03,SENGKANG,5 ROOM,451B,SENGKANG WEST WAY,22 TO 24,111.0,Improved,2015,89 years 04 months,768000.0,451B SENGKANG WEST WAY,792451,1.39429893366267,103.874547411666
201489,2025-03,SERANGOON,5 ROOM,255,SERANGOON CTRL DR,07 TO 09,115.0,Improved,1999,73 years 04 months,970000.0,255 SERANGOON CTRL DR,550255,1.35506201098257,103.87087185901
201490,2025-03,SERANGOON,5 ROOM,121,SERANGOON NTH AVE 1,01 TO 03,121.0,Improved,1985,59 years 06 months,660000.0,121 SERANGOON NTH AVE 1,550121,1.36693542180082,103.8712847222
201491,2025-03,TAMPINES,3 ROOM,604A,TAMPINES AVE 9,07 TO 09,68.0,Model A,2020,94 years,608000.0,604A TAMPINES AVE 9,521604,1.36136735465848,103.935193332453
201492,2025-03,TAMPINES,4 ROOM,168A,SIMEI LANE,10 TO 12,94.0,DBSS,2011,84 years 11 months,900000.0,168A SIMEI LANE,521168,1.34273869646672,103.958976326972
201493,2025-03,TAMPINES,4 ROOM,163,SIMEI RD,07 TO 09,104.0,Model A,1989,63 years 05 months,645000.0,163 SIMEI RD,520163,1.34600508966501,103.959200557679
201494,2025-03,TAMPINES,4 ROOM,149,SIMEI ST 1,04 TO 06,84.0,Simplified,1988,62 years 01 month,590000.0,149 SIMEI ST 1,520149,1.34588876242278,103.956025808254
201495,2025-03,TAMPINES,4 ROOM,609B,TAMPINES NTH DR 1,10 TO 12,93.0,Model A,2020,94 years 08 months,730000.0,609B TAMPINES NTH DR 1,522609,1.36361417117643,103.935679916041
201496,2025-03,TAMPINES,4 ROOM,612B,TAMPINES NTH DR 1,13 TO 15,93.0,Model A,2020,94 years 08 months,760000.0,612B TAMPINES NTH DR 1,522612,1.36536043524759,103.935789815182
201497,2025-03,TAMPINES,4 ROOM,423,TAMPINES ST 41,04 TO 06,84.0,Simplified,1985,59 years 06 months,555000.0,423 TAMPINES ST 41,520423,1.35707271057215,103.947601553633
201498,2025-03,TAMPINES,5 ROOM,610C,TAMPINES NTH DR 1,10 TO 12,113.0,Improved,2020,94 years 08 months,908888.0,610C TAMPINES NTH DR 1,523610,1.36441776002022,103.935558340158
201499,2025-03,TAMPINES,5 ROOM,453,TAMPINES ST 42,10 TO 12,122.0,Improved,1987,61 years 09 months,760000.0,453 TAMPINES ST 42,520453,1.35702782190396,103.953913852452
201500,2025-03,TOA PAYOH,3 ROOM,115C,ALKAFF CRES,04 TO 06,68.0,Model A,2020,94 years 10 months,788000.0,115C ALKAFF CRES,343115,1.33722847497236,103.872886634076
201501,2025-03,TOA PAYOH,3 ROOM,73,LOR 4 TOA PAYOH,01 TO 03,62.0,Standard,1973,47 years,363000.0,73 LOR 4 TOA PAYOH,310073,1.33432001132262,103.851714329027
201502,2025-03,TOA PAYOH,3 ROOM,4,LOR 7 TOA PAYOH,01 TO 03,68.0,Improved,1969,43 years 05 months,330000.0,4 LOR 7 TOA PAYOH,310004,1.33904479783226,103.85554106336
201503,2025-03,TOA PAYOH,3 ROOM,140,POTONG PASIR AVE 3,10 TO 12,74.0,Model A,1984,58 years 05 months,618888.0,140 POTONG PASIR AVE 3,350140,1.33381551462422,103.866824943073
201504,2025-03,TOA PAYOH,4 ROOM,264,TOA PAYOH EAST,01 TO 03,93.0,Model A,2019,93 years 10 months,880888.0,264 TOA PAYOH EAST,310264,1.332464536405,103.855237512058
201505,2025-03,TOA PAYOH,5 ROOM,106A,BIDADARI PK DR,13 TO 15,113.0,Improved,2020,94 years 06 months,1330000.0,106A BIDADARI PK DR,341106,1.33413899991746,103.871259715052
201506,2025-03,WOODLANDS,3 ROOM,206,MARSILING DR,07 TO 09,68.0,New Generation,1981,55 years 03 months,380000.0,206 MARSILING DR,730206,1.44540729578602,103.77336982144
201507,2025-03,WOODLANDS,3 ROOM,693B,WOODLANDS AVE 6,07 TO 09,68.0,Model A,2018,92 years 07 months,530000.0,693B WOODLANDS AVE 6,732693,1.43850605916385,103.804250612304
201508,2025-03,WOODLANDS,4 ROOM,205,MARSILING DR,10 TO 12,92.0,New Generation,1980,54 years 09 months,450000.0,205 MARSILING DR,730205,1.4449461460443,103.773484126567
201509,2025-03,WOODLANDS,4 ROOM,889D,WOODLANDS DR 50,01 TO 03,93.0,Model A,2017,91 years 05 months,608000.0,889D WOODLANDS DR 50,734889,1.43778127256862,103.792079496533
201510,2025-03,WOODLANDS,4 ROOM,875,WOODLANDS ST 82,07 TO 09,111.0,Model A,1996,70 years 01 month,560000.0,875 WOODLANDS ST 82,730875,1.44253261259412,103.789611665242
201511,2025-03,WOODLANDS,5 ROOM,578,WOODLANDS DR 16,04 TO 06,110.0,Improved,2000,74 years 09 months,658500.0,578 WOODLANDS DR 16,730578,1.43154455834341,103.796152447108
201512,2025-03,WOODLANDS,5 ROOM,891A,WOODLANDS DR 50,07 TO 09,118.0,Improved,1996,70 years 09 months,712000.0,891A WOODLANDS DR 50,730891,1.43774346901468,103.791171851068
201513,2025-03,WOODLANDS,5 ROOM,684D,WOODLANDS DR 73,07 TO 09,120.0,Premium Apartment,2000,74 years 01 month,685000.0,684D WOODLANDS DR 73,734684,1.44135791662657,103.80450821919
201514,2025-03,YISHUN,3 ROOM,123,YISHUN ST 11,04 TO 06,68.0,New Generation,1985,59 years 05 months,405000.0,123 YISHUN ST 11,760123,1.43457263947313,103.831796919201
201515,2025-03,YISHUN,3 ROOM,133,YISHUN ST 11,01 TO 03,73.0,New Generation,1984,58 years 08 months,420000.0,133 YISHUN ST 11,760133,1.43255737199893,103.830784110499
201516,2025-03,YISHUN,3 ROOM,268,YISHUN ST 22,01 TO 03,64.0,Simplified,1985,59 years 10 months,400000.0,268 YISHUN ST 22,760268,1.43721769707281,103.839506264439
201517,2025-03,YISHUN,3 ROOM,511C,YISHUN ST 51,01 TO 03,68.0,Model A,2017,91 years 07 months,475000.0,511C YISHUN ST 51,763511,1.41530305258667,103.842596778528
201518,2025-03,YISHUN,4 ROOM,348A,YISHUN AVE 11,10 TO 12,92.0,DBSS,2013,87 years 08 months,758888.0,348A YISHUN AVE 11,761348,1.42735308102406,103.84121918037
201519,2025-03,YISHUN,4 ROOM,348B,YISHUN AVE 11,10 TO 12,92.0,DBSS,2013,87 years 08 months,800000.0,348B YISHUN AVE 11,762348,1.42727813190218,103.841979979174
201520,2025-03,YISHUN,4 ROOM,423,YISHUN AVE 11,01 TO 03,84.0,Simplified,1988,62 years 06 months,468000.0,423 YISHUN AVE 11,760423,1.42284296540435,103.848313795012
201521,2025-03,YISHUN,4 ROOM,446,YISHUN AVE 11,01 TO 03,92.0,Model A,2012,86 years 06 months,555000.0,446 YISHUN AVE 11,760446,1.42303228780101,103.84515982739
201522,2025-03,YISHUN,4 ROOM,288,YISHUN AVE 6,07 TO 09,84.0,Simplified,1987,61 years 07 months,485888.0,288 YISHUN AVE 6,760288,1.43994549676732,103.83762430993
201523,2025-03,YISHUN,4 ROOM,462D,YISHUN AVE 6,07 TO 09,93.0,Model A,2019,93 years 07 months,618888.0,462D YISHUN AVE 6,764462,1.42803884912514,103.850959508396
201524,2025-03,YISHUN,4 ROOM,318C,YISHUN AVE 9,01 TO 03,92.0,Model A,2015,89 years 09 months,560000.0,318C YISHUN AVE 9,763318,1.43338279018701,103.843517908933
201525,2025-03,YISHUN,4 ROOM,112,YISHUN RING RD,07 TO 09,89.0,Simplified,1985,59 years 09 months,488000.0,112 YISHUN RING RD,760112,1.43416864539746,103.829054979214
201526,2025-03,YISHUN,4 ROOM,336A,YISHUN ST 31,13 TO 15,92.0,Model A,2015,89 years 09 months,600000.0,336A YISHUN ST 31,761336,1.43129939349116,103.84467527369
201527,2025-03,YISHUN,4 ROOM,647,YISHUN ST 61,07 TO 09,88.0,Simplified,1987,61 years 02 months,510000.0,647 YISHUN ST 61,760647,1.42256413262012,103.837273860608
201528,2025-03,YISHUN,5 ROOM,860,YISHUN AVE 4,10 TO 12,122.0,Improved,1988,62 years 07 months,725000.0,860 YISHUN AVE 4,760860,1.4178225828294,103.839854472178
201529,2025-03,YISHUN,5 ROOM,336C,YISHUN ST 31,04 TO 06,112.0,Improved,2015,89 years 10 months,688000.0,336C YISHUN ST 31,763336,1.43184054730221,103.844133465
201530,2025-03,YISHUN,EXECUTIVE,324,YISHUN CTRL,07 TO 09,142.0,Apartment,1988,62 years 06 months,895000.0,324 YISHUN CTRL,760324,1.4286615032394,103.841999469414
201410,2025-03,ANG MO KIO,3 ROOM,444,ANG MO KIO AVE 10,10 TO 12,67.0,New Generation,1979,53 years 07 months,425000.0,444 ANG MO KIO AVE 10,560444,1.36660045321147,103.855578790668
201412,2025-03,ANG MO KIO,4 ROOM,131,ANG MO KIO AVE 3,10 TO 12,98.0,New Generation,1979,52 years 11 months,600000.0,131 ANG MO KIO AVE 3,560131,1.37101536386003,103.841800323712
201413,2025-03,ANG MO KIO,4 ROOM,425,ANG MO KIO AVE 3,01 TO 03,98.0,New Generation,1979,52 years 11 months,595888.0,425 ANG MO KIO AVE 3,560425,1.36912241721255,103.851616057064
201414,2025-03,ANG MO KIO,4 ROOM,260B,ANG MO KIO ST 21,25 TO 27,93.0,Model A,2018,92 years 05 months,1078888.0,260B ANG MO KIO ST 21,562260,1.36886409962902,103.83395420063
201415,2025-03,ANG MO KIO,5 ROOM,311,ANG MO KIO AVE 3,13 TO 15,123.0,Improved,1978,52 years,790000.0,311 ANG MO KIO AVE 3,560311,1.36663973560866,103.848769708749
201416,2025-03,ANG MO KIO,5 ROOM,620,ANG MO KIO AVE 9,04 TO 06,121.0,Improved,1980,54 years 07 months,655000.0,620 ANG MO KIO AVE 9,560620,1.38244082944044,103.839546376827
201419,2025-03,BEDOK,3 ROOM,535,BEDOK NTH ST 3,01 TO 03,60.0,Improved,1986,59 years 11 months,380000.0,535 BEDOK NTH ST 3,460535,1.33270278688381,103.923456730636
201421,2025-03,BEDOK,4 ROOM,131,BEDOK NTH AVE 3,13 TO 15,92.0,New Generation,1978,52 years 02 months,588000.0,131 BEDOK NTH AVE 3,460131,1.3269699402053,103.93585007622
201423,2025-03,BISHAN,4 ROOM,166,BISHAN ST 13,07 TO 09,84.0,Simplified,1987,61 years 11 months,690000.0,166 BISHAN ST 13,570166,1.34886345078255,103.855225779214
201426,2025-03,BISHAN,EXECUTIVE,238,BISHAN ST 22,04 TO 06,148.0,Maisonette,1992,66 years 06 months,1230000.0,238 BISHAN ST 22,570238,1.35976080279004,103.844642640153
201428,2025-03,BUKIT BATOK,3 ROOM,280,BT BATOK EAST AVE 3,01 TO 03,64.0,Simplified,1988,62 years 02 months,390000.0,280 BT BATOK EAST AVE 3,650280,1.34762239826035,103.757150072517
201430,2025-03,BUKIT BATOK,3 ROOM,238,BT BATOK EAST AVE 5,10 TO 12,67.0,New Generation,1986,60 years 09 months,432000.0,238 BT BATOK EAST AVE 5,650238,1.34983226535734,103.7547381511
201432,2025-03,BUKIT BATOK,4 ROOM,268,BT BATOK EAST AVE 4,10 TO 12,84.0,Simplified,1985,59 years 06 months,470000.0,268 BT BATOK EAST AVE 4,650268,1.34926274020427,103.759190085587
201433,2025-03,BUKIT BATOK,4 ROOM,160,BT BATOK ST 11,10 TO 12,105.0,Model A,1984,58 years 03 months,583000.0,160 BT BATOK ST 11,650160,1.34888490439686,103.742035794953
201436,2025-03,BUKIT BATOK,4 ROOM,439B,BT BATOK WEST AVE 8,13 TO 15,93.0,Model A,2020,94 years,720000.0,439B BT BATOK WEST AVE 8,652439,1.35721494856744,103.739342992281
201438,2025-03,BUKIT BATOK,5 ROOM,443C,BT BATOK WEST AVE 8,10 TO 12,112.0,Improved,2019,93 years 01 month,865000.0,443C BT BATOK WEST AVE 8,653443,1.35557897178099,103.737833820151
201439,2025-03,BUKIT BATOK,EXECUTIVE,366,BT BATOK ST 31,10 TO 12,146.0,Maisonette,1986,60 years 01 month,870000.0,366 BT BATOK ST 31,650366,1.36036478752608,103.748916692721
201440,2025-03,BUKIT MERAH,2 ROOM,50,HAVELOCK RD,10 TO 12,42.0,Standard,1973,47 years 01 month,270000.0,50 HAVELOCK RD,160050,1.2897647546758,103.826802915076
201442,2025-03,BUKIT MERAH,3 ROOM,95B,HENDERSON RD,13 TO 15,68.0,Model A,2019,93 years 03 months,755000.0,95B HENDERSON RD,152095,1.28697703899167,103.821558832304
201443,2025-03,BUKIT MERAH,3 ROOM,46,JLN BT HO SWEE,07 TO 09,62.0,Standard,1970,43 years 11 months,430000.0,46 JLN BT HO SWEE,160046,1.28829579725142,103.826144732416
201445,2025-03,BUKIT MERAH,3 ROOM,54,TELOK BLANGAH DR,01 TO 03,73.0,New Generation,1978,51 years 11 months,385000.0,54 TELOK BLANGAH DR,100054,1.27359718662062,103.811942133272
201447,2025-03,BUKIT MERAH,4 ROOM,3,DELTA AVE,04 TO 06,91.0,New Generation,1985,59 years 07 months,715000.0,3 DELTA AVE,160003,1.29169833480355,103.827334523132
201448,2025-03,BUKIT MERAH,4 ROOM,101,HENDERSON CRES,01 TO 03,74.0,Standard,1970,44 years 05 months,420000.0,101 HENDERSON CRES,150101,1.29071799751539,103.821625207737
201449,2025-03,BUKIT MERAH,4 ROOM,96B,HENDERSON RD,25 TO 27,83.0,Model A,2019,93 years 03 months,1028888.0,96B HENDERSON RD,152096,1.288056640159,103.821285332505
201450,2025-03,BUKIT MERAH,4 ROOM,118D,JLN MEMBINA,16 TO 18,92.0,Model A,2003,76 years 11 months,868000.0,118D JLN MEMBINA,164118,1.2826810505173,103.826583442179
201454,2025-03,BUKIT PANJANG,2 ROOM,633D,SENJA RD,01 TO 03,47.0,Model A,2013,87 years 10 months,320888.0,633D SENJA RD,674633,1.38461189714551,103.759602675107
201456,2025-03,BUKIT PANJANG,3 ROOM,636A,SENJA RD,19 TO 21,67.0,Model A,2015,89 years 09 months,535000.0,636A SENJA RD,671636,1.38691566473158,103.758538070592
201457,2025-03,BUKIT PANJANG,4 ROOM,502,JELAPANG RD,16 TO 18,102.0,Model A,1998,72 years 01 month,610000.0,502 JELAPANG RD,670502,1.38371721293326,103.766750828138
201458,2025-03,BUKIT PANJANG,4 ROOM,510,JELAPANG RD,04 TO 06,91.0,Model A2,1998,72 years 04 months,540000.0,510 JELAPANG RD,670510,1.38758897243469,103.768982944262
201462,2025-03,BUKIT TIMAH,5 ROOM,1,QUEEN'S RD,04 TO 06,120.0,Standard,1974,48 years 02 months,900888.0,1 QUEEN'S RD,260001,1.31726629524359,103.806782877524
201466,2025-03,CHOA CHU KANG,4 ROOM,130,CHOA CHU KANG AVE 1,07 TO 09,105.0,Model A,1993,67 years 04 months,540000.0,130 CHOA CHU KANG AVE 1,680130,1.3812909121038,103.750296649613
201467,2025-03,CHOA CHU KANG,4 ROOM,541,CHOA CHU KANG ST 52,04 TO 06,105.0,Model A,1994,68 years 02 months,540000.0,541 CHOA CHU KANG ST 52,680541,1.39278327502122,103.744321835531
201468,2025-03,CHOA CHU KANG,4 ROOM,805B,KEAT HONG CL,04 TO 06,93.0,Model A,2017,91 years 03 months,598000.0,805B KEAT HONG CL,682805,1.37274770355775,103.74315742408
201469,2025-03,CHOA CHU KANG,5 ROOM,810A,CHOA CHU KANG AVE 7,07 TO 09,113.0,Improved,2017,91 years 09 months,693000.0,810A CHOA CHU KANG AVE 7,681810,1.37454644083077,103.746304172261
201470,2025-03,CHOA CHU KANG,5 ROOM,566,CHOA CHU KANG ST 52,04 TO 06,126.0,Improved,1995,69 years 09 months,677000.0,566 CHOA CHU KANG ST 52,680566,1.39461688537766,103.745768782105
201472,2025-03,CLEMENTI,3 ROOM,421,CLEMENTI AVE 1,13 TO 15,74.0,Model A,2013,87 years 07 months,728000.0,421 CLEMENTI AVE 1,120421,1.30909798702908,103.768355913054
201473,2025-03,CLEMENTI,3 ROOM,365,CLEMENTI AVE 2,04 TO 06,67.0,New Generation,1978,51 years 11 months,425000.0,365 CLEMENTI AVE 2,120365,1.3122997890586,103.769943830728
201474,2025-03,CLEMENTI,3 ROOM,728,CLEMENTI WEST ST 2,04 TO 06,82.0,New Generation,1980,54 years 07 months,440000.0,728 CLEMENTI WEST ST 2,120728,1.30520206759029,103.763833368922
201477,2025-03,CLEMENTI,4 ROOM,417,CLEMENTI AVE 1,07 TO 09,100.0,Model A,2013,87 years 07 months,935000.0,417 CLEMENTI AVE 1,120417,1.31022566649471,103.770901847179
201479,2025-03,CLEMENTI,5 ROOM,336,CLEMENTI AVE 2,13 TO 15,119.0,Improved,1978,52 years 09 months,845000.0,336 CLEMENTI AVE 2,120336,1.31667943214563,103.769231150532
201481,2025-03,GEYLANG,3 ROOM,111,ALJUNIED CRES,10 TO 12,67.0,New Generation,1978,51 years 11 months,458000.0,111 ALJUNIED CRES,380111,1.32039727554777,103.884246841453
201483,2025-03,GEYLANG,3 ROOM,17,EUNOS CRES,01 TO 03,59.0,Improved,1977,51 years 03 months,380000.0,17 EUNOS CRES,400017,1.32337014878712,103.904403708711
201484,2025-03,GEYLANG,3 ROOM,93,PAYA LEBAR WAY,04 TO 06,67.0,Improved,1972,46 years 08 months,350000.0,93 PAYA LEBAR WAY,370093,1.32273476922747,103.888103196257
201485,2025-03,GEYLANG,4 ROOM,82A,CIRCUIT RD,07 TO 09,93.0,Model A,2020,94 years 03 months,1007889.0,82A CIRCUIT RD,371082,1.32428910717838,103.889760526482
201486,2025-03,GEYLANG,5 ROOM,123,GEYLANG EAST CTRL,16 TO 18,123.0,Improved,1982,56 years 03 months,930000.0,123 GEYLANG EAST CTRL,380123,1.31817735130958,103.885425829984
201488,2025-03,HOUGANG,3 ROOM,619,HOUGANG AVE 8,10 TO 12,69.0,Improved,1985,59 years 07 months,460000.0,619 HOUGANG AVE 8,530619,1.36984770803551,103.883701202398
201489,2025-03,HOUGANG,3 ROOM,631,HOUGANG AVE 8,04 TO 06,60.0,Improved,1985,59 years 06 months,409500.0,631 HOUGANG AVE 8,530631,1.37069136628932,103.881518580726
201491,2025-03,HOUGANG,4 ROOM,981B,BUANGKOK CRES,04 TO 06,90.0,Model A,2003,77 years 04 months,551000.0,981B BUANGKOK CRES,532981,1.3804698748621,103.880038005477
201492,2025-03,HOUGANG,4 ROOM,923,HOUGANG AVE 9,01 TO 03,100.0,Model A,1998,72 years 01 month,600000.0,923 HOUGANG AVE 9,530923,1.37612888392923,103.882894860894
201493,2025-03,HOUGANG,4 ROOM,534,HOUGANG ST 52,10 TO 12,113.0,Model A,1992,66 years 08 months,700000.0,534 HOUGANG ST 52,530534,1.37715444677834,103.890491311918
201495,2025-03,HOUGANG,4 ROOM,473B,UPP SERANGOON CRES,16 TO 18,93.0,Model A,2017,91 years 04 months,682888.0,473B UPP SERANGOON CRES,532473,1.37593845080051,103.901084524846
201496,2025-03,HOUGANG,5 ROOM,997A,BUANGKOK CRES,10 TO 12,113.0,Improved,2018,92 years 09 months,790000.0,997A BUANGKOK CRES,531997,1.38504599856502,103.881166649447
201497,2025-03,HOUGANG,5 ROOM,310,HOUGANG AVE 5,10 TO 12,121.0,Improved,1984,58 years,675000.0,310 HOUGANG AVE 5,530310,1.36632810370351,103.896213964527
201498,2025-03,HOUGANG,5 ROOM,610,HOUGANG AVE 8,19 TO 21,122.0,Improved,1986,60 years 07 months,828000.0,610 HOUGANG AVE 8,530610,1.37031263468239,103.88512562936
201499,2025-03,JURONG EAST,3 ROOM,241,JURONG EAST ST 24,04 TO 06,68.0,New Generation,1983,57 years 01 month,415000.0,241 JURONG EAST ST 24,600241,1.3414812934447,103.742973359591
201503,2025-03,JURONG WEST,3 ROOM,187,BOON LAY AVE,22 TO 24,59.0,Improved,1978,52 years 05 months,345000.0,187 BOON LAY AVE,640187,1.34505773588933,103.710699802755
201507,2025-03,JURONG WEST,3 ROOM,527,JURONG WEST ST 52,04 TO 06,67.0,New Generation,1983,57 years 07 months,380000.0,527 JURONG WEST ST 52,640527,1.34788417193502,103.716417389865
201508,2025-03,JURONG WEST,3 ROOM,939,JURONG WEST ST 91,07 TO 09,73.0,Model A,1989,63 years 01 month,425000.0,939 JURONG WEST ST 91,640939,1.34295232797122,103.689028795017
201509,2025-03,JURONG WEST,4 ROOM,196B,BOON LAY DR,10 TO 12,93.0,Model A,2015,89 years 02 months,681000.0,196B BOON LAY DR,642196,1.34278860969526,103.714301445473
201512,2025-03,JURONG WEST,4 ROOM,655B,JURONG WEST ST 61,13 TO 15,85.0,Model A2,2002,76 years 09 months,560000.0,655B JURONG WEST ST 61,642655,1.33550103973985,103.697513956741
201515,2025-03,JURONG WEST,4 ROOM,718,JURONG WEST ST 71,01 TO 03,103.0,Model A,1991,65 years,460000.0,718 JURONG WEST ST 71,640718,1.34372249761305,103.697467051452
201518,2025-03,JURONG WEST,5 ROOM,273B,JURONG WEST AVE 3,01 TO 03,111.0,Improved,2001,75 years 10 months,560000.0,273B JURONG WEST AVE 3,642273,1.3515563365069,103.703627488189
201519,2025-03,JURONG WEST,5 ROOM,276B,JURONG WEST AVE 3,01 TO 03,111.0,Improved,2002,76 years 01 month,550000.0,276B JURONG WEST AVE 3,642276,1.35266387212157,103.704448082084
201520,2025-03,JURONG WEST,5 ROOM,276C,JURONG WEST ST 25,10 TO 12,111.0,Improved,2002,76 years 02 months,575000.0,276C JURONG WEST ST 25,643276,1.35323553027461,103.704442590627
201521,2025-03,JURONG WEST,5 ROOM,517A,JURONG WEST ST 52,04 TO 06,115.0,Improved,2000,74 years 03 months,760000.0,517A JURONG WEST ST 52,641517,1.34531761707387,103.721254306116
201522,2025-03,JURONG WEST,5 ROOM,662A,JURONG WEST ST 64,04 TO 06,110.0,Improved,2001,75 years 04 months,645000.0,662A JURONG WEST ST 64,641662,1.33688578252671,103.702739749317
201524,2025-03,JURONG WEST,EXECUTIVE,159,YUNG PING RD,04 TO 06,147.0,Apartment,1996,70 years 03 months,790000.0,159 YUNG PING RD,610159,1.32928599309236,103.72238572895
201525,2025-03,KALLANG/WHAMPOA,3 ROOM,72,GEYLANG BAHRU,04 TO 06,59.0,Improved,1974,48 years 01 month,380000.0,72 GEYLANG BAHRU,330072,1.32158321590245,103.871419569078
201528,2025-03,KALLANG/WHAMPOA,3 ROOM,8A,UPP BOON KENG RD,01 TO 03,70.0,Premium Apartment,2017,91 years 06 months,690000.0,8A UPP BOON KENG RD,381008,1.31291757072948,103.869743094328
201530,2025-03,KALLANG/WHAMPOA,4 ROOM,15,ST. GEORGE'S RD,10 TO 12,91.0,New Generation,1985,58 years 11 months,630000.0,15 ST. GEORGE'S RD,320015,1.32447134086786,103.861936683959
201532,2025-03,MARINE PARADE,3 ROOM,33,MARINE CRES,07 TO 09,65.0,Improved,1975,49 years 04 months,472000.0,33 MARINE CRES,440033,1.30264896606627,103.912184784558
201534,2025-03,PASIR RIS,5 ROOM,407,PASIR RIS DR 6,01 TO 03,122.0,Improved,1990,64 years 01 month,725000.0,407 PASIR RIS DR 6,510407,1.37362757229605,103.954517357402
201535,2025-03,PASIR RIS,5 ROOM,409,PASIR RIS DR 6,10 TO 12,127.0,Improved,1989,63 years 10 months,770000.0,409 PASIR RIS DR 6,510409,1.37291719840656,103.954225824192
201536,2025-03,PASIR RIS,5 ROOM,227,PASIR RIS ST 21,10 TO 12,127.0,Improved,1993,67 years 05 months,696000.0,227 PASIR RIS ST 21,510227,1.37166868291671,103.961763681659
201545,2025-03,PUNGGOL,5 ROOM,122A,EDGEDALE PLAINS,07 TO 09,112.0,Improved,2017,91 years 03 months,716000.0,122A EDGEDALE PLAINS,821122,1.39350981217359,103.909106562659
201546,2025-03,PUNGGOL,5 ROOM,176C,EDGEFIELD PLAINS,13 TO 15,110.0,Improved,2003,77 years 07 months,678000.0,176C EDGEFIELD PLAINS,823176,1.39831055285523,103.90878367744
201547,2025-03,QUEENSTOWN,3 ROOM,87,DAWSON RD,16 TO 18,65.0,Premium Apartment,2016,90 years 07 months,750000.0,87 DAWSON RD,141087,1.2957304268451,103.809759937443
201549,2025-03,QUEENSTOWN,3 ROOM,89,TANGLIN HALT RD,37 TO 39,60.0,Model A,2008,82 years 07 months,780000.0,89 TANGLIN HALT RD,141089,1.30120035372775,103.798921874569
201550,2025-03,QUEENSTOWN,4 ROOM,50,C'WEALTH DR,01 TO 03,88.0,Model A,2015,89 years,838786.0,50 C'WEALTH DR,142050,1.30112909158394,103.797123032464
201551,2025-03,QUEENSTOWN,4 ROOM,28B,DOVER CRES,22 TO 24,95.0,Model A,2012,86 years 01 month,945000.0,28B DOVER CRES,132028,1.30544397285961,103.781869025225
201552,2025-03,SEMBAWANG,3 ROOM,101B,CANBERRA ST,10 TO 12,69.0,Model A,2020,94 years 10 months,540000.0,101B CANBERRA ST,752101,1.45166310353079,103.831174909166
201556,2025-03,SEMBAWANG,4 ROOM,128A,CANBERRA ST,07 TO 09,93.0,Model A,2018,92 years 08 months,658000.0,128A CANBERRA ST,751128,1.44572196543585,103.833276458051
201557,2025-03,SEMBAWANG,4 ROOM,129B,CANBERRA ST,07 TO 09,93.0,Model A,2018,92 years 08 months,665000.0,129B CANBERRA ST,752129,1.44487017343162,103.832974164005
201559,2025-03,SEMBAWANG,4 ROOM,322,SEMBAWANG CL,13 TO 15,100.0,Model A,1999,73 years 04 months,628000.0,322 SEMBAWANG CL,750322,1.44555988914785,103.818296366915
201563,2025-03,SEMBAWANG,EXECUTIVE,357A,ADMIRALTY DR,04 TO 06,131.0,Premium Apartment,2001,75 years 04 months,730000.0,357A ADMIRALTY DR,751357,1.45004399363065,103.817003273639
201564,2025-03,SEMBAWANG,EXECUTIVE,416,CANBERRA RD,04 TO 06,130.0,Apartment,2001,75 years 02 months,778000.0,416 CANBERRA RD,750416,1.45187860111274,103.818911242365
201566,2025-03,SENGKANG,4 ROOM,207D,COMPASSVALE LANE,01 TO 03,92.0,Model A,2005,79 years 04 months,575000.0,207D COMPASSVALE LANE,547207,1.38430948653884,103.897629498821
201568,2025-03,SENGKANG,4 ROOM,184C,RIVERVALE CRES,01 TO 03,85.0,Model A2,2003,77 years 04 months,545000.0,184C RIVERVALE CRES,543184,1.39266579969396,103.907716745628
201570,2025-03,SENGKANG,4 ROOM,272C,SENGKANG CTRL,07 TO 09,90.0,Premium Apartment,2009,83 years 10 months,820000.0,272C SENGKANG CTRL,543272,1.38427332655847,103.893821005371
201574,2025-03,SENGKANG,5 ROOM,158C,RIVERVALE CRES,01 TO 03,111.0,Premium Apartment,2003,77 years 06 months,610000.0,158C RIVERVALE CRES,543158,1.38818825958938,103.907145829717
201578,2025-03,SENGKANG,EXECUTIVE,302D,ANCHORVALE LINK,04 TO 06,130.0,Apartment,2001,75 years 09 months,775000.0,302D ANCHORVALE LINK,544302,1.3882037089642,103.889719168414
201579,2025-03,SERANGOON,4 ROOM,239,SERANGOON AVE 2,07 TO 09,84.0,Simplified,1985,59 years 04 months,625000.0,239 SERANGOON AVE 2,550239,1.35319103281952,103.868691793358
201586,2025-03,TAMPINES,4 ROOM,136,SIMEI ST 1,04 TO 06,84.0,Simplified,1988,62 years 07 months,570000.0,136 SIMEI ST 1,520136,1.34793607242033,103.956339808271
201589,2025-03,TAMPINES,4 ROOM,608A,TAMPINES NTH DR 1,07 TO 09,93.0,Model A,2020,94 years 08 months,752000.0,608A TAMPINES NTH DR 1,521608,1.36314791550448,103.93511840985
201590,2025-03,TAMPINES,4 ROOM,609A,TAMPINES NTH DR 1,07 TO 09,93.0,Model A,2020,94 years 08 months,780000.0,609A TAMPINES NTH DR 1,521609,1.36361412499017,103.935357759734
201591,2025-03,TAMPINES,4 ROOM,366,TAMPINES ST 34,01 TO 03,100.0,Model A,1997,71 years 01 month,598000.0,366 TAMPINES ST 34,520366,1.35761758572121,103.961378989065
201593,2025-03,TAMPINES,5 ROOM,225,SIMEI ST 4,01 TO 03,122.0,Improved,1988,62 years 10 months,745000.0,225 SIMEI ST 4,520225,1.34231488348319,103.957247740045
201594,2025-03,TAMPINES,5 ROOM,518D,TAMPINES CTRL 7,04 TO 06,109.0,DBSS,2008,82 years 11 months,900000.0,518D TAMPINES CTRL 7,524518,1.3563750896162,103.939270634189
201598,2025-03,TAMPINES,5 ROOM,721,TAMPINES ST 71,10 TO 12,120.0,Improved,1997,71 years 03 months,820000.0,721 TAMPINES ST 71,520721,1.3599202305003,103.936352048283
201599,2025-03,TAMPINES,EXECUTIVE,889,TAMPINES ST 81,01 TO 03,149.0,Maisonette,1989,63 years 01 month,980000.0,889 TAMPINES ST 81,520889,1.34991348311537,103.931049462008
201601,2025-03,TOA PAYOH,3 ROOM,118A,ALKAFF CRES,04 TO 06,68.0,Model A,2020,94 years 10 months,765000.0,118A ALKAFF CRES,341118,1.33649028446747,103.873777299654
201602,2025-03,TOA PAYOH,3 ROOM,168,LOR 1 TOA PAYOH,04 TO 06,76.0,Improved,1972,46 years 06 months,400000.0,168 LOR 1 TOA PAYOH,310168,1.33176643070234,103.843423249665
201606,2025-03,TOA PAYOH,4 ROOM,118A,ALKAFF CRES,04 TO 06,93.0,Model A,2020,94 years 10 months,1118000.0,118A ALKAFF CRES,341118,1.33649028446747,103.873777299654
201607,2025-03,TOA PAYOH,4 ROOM,222,LOR 8 TOA PAYOH,19 TO 21,82.0,Improved,1976,50 years 02 months,505000.0,222 LOR 8 TOA PAYOH,310222,1.34177310664554,103.856039796964
201608,2025-03,TOA PAYOH,4 ROOM,115,POTONG PASIR AVE 1,10 TO 12,96.0,New Generation,1984,58 years 09 months,560000.0,115 POTONG PASIR AVE 1,350115,1.33726999806036,103.862806558366
201615,2025-03,WOODLANDS,4 ROOM,739,WOODLANDS CIRCLE,10 TO 12,100.0,Model A2,1997,71 years 06 months,553000.0,739 WOODLANDS CIRCLE,730739,1.44422870888598,103.797025367791
201617,2025-03,WOODLANDS,4 ROOM,689C,WOODLANDS DR 75,10 TO 12,90.0,Premium Apartment,2004,78 years,538000.0,689C WOODLANDS DR 75,733689,1.44481204614487,103.808406093876
201618,2025-03,WOODLANDS,4 ROOM,667,WOODLANDS RING RD,07 TO 09,91.0,Model A,2001,75 years,550000.0,667 WOODLANDS RING RD,730667,1.43864551855524,103.79791843779
201619,2025-03,WOODLANDS,4 ROOM,424,WOODLANDS ST 41,04 TO 06,100.0,Model A,1997,71 years 03 months,550000.0,424 WOODLANDS ST 41,730424,1.42728730939008,103.774859398322
201624,2025-03,YISHUN,3 ROOM,172,YISHUN AVE 7,07 TO 09,64.0,Simplified,1988,62 years 05 months,426000.0,172 YISHUN AVE 7,760172,1.43660111000642,103.83109095206
201625,2025-03,YISHUN,3 ROOM,402,YISHUN RING RD,10 TO 12,74.0,Model A,1989,63 years,420000.0,402 YISHUN RING RD,760402,1.42654968667614,103.847265134763
201626,2025-03,YISHUN,3 ROOM,849,YISHUN RING RD,01 TO 03,60.0,Model A,1999,73 years 05 months,460000.0,849 YISHUN RING RD,760849,1.41695924255318,103.83535191292
201635,2025-03,YISHUN,4 ROOM,675C,YISHUN AVE 4,10 TO 12,93.0,Model A,2018,92 years 10 months,632000.0,675C YISHUN AVE 4,763675,1.41942806754236,103.84218131825
201639,2025-03,YISHUN,4 ROOM,317B,YISHUN AVE 9,07 TO 09,92.0,Model A,2015,89 years 08 months,599000.0,317B YISHUN AVE 9,762317,1.43416878511817,103.842950441024
201641,2025-03,YISHUN,4 ROOM,342A,YISHUN RING RD,01 TO 03,93.0,Premium Apartment,2016,89 years 11 months,580000.0,342A YISHUN RING RD,761342,1.43059711114855,103.84446482342
201642,2025-03,YISHUN,4 ROOM,147,YISHUN ST 11,10 TO 12,91.0,New Generation,1985,59 years 07 months,595000.0,147 YISHUN ST 11,760147,1.4312806628618,103.831829692469
201645,2025-03,YISHUN,4 ROOM,631,YISHUN ST 61,01 TO 03,91.0,New Generation,1992,66 years 04 months,530000.0,631 YISHUN ST 61,760631,1.41835313714077,103.838412790486
201646,2025-03,YISHUN,4 ROOM,716,YISHUN ST 71,10 TO 12,88.0,Simplified,1987,61 years 08 months,515000.0,716 YISHUN ST 71,760716,1.42621096565013,103.827704108295
