_id,month,town,flat_type,block,street_name,storey_range,floor_area_sqm,flat_model,lease_commence_date,remaining_lease,resale_price,address,postal,latitude,longitude,_ts
197185,2025-12,ANG MO KIO,3 ROOM,416,ANG MO KIO AVE 10,01 TO 03,74.0,New Generation,1979,52 years 09 months,440000.0,416 ANG MO KIO AVE 10,560416,1.3645417089084,103.855103690549,2025-12-01
197435,2025-12,ANG MO KIO,3 ROOM,535,ANG MO KIO AVE 5,07 TO 09,82.0,New Generation,1980,53 years 03 months,488888.0,535 ANG MO KIO AVE 5,560535,1.37458255258876,103.853049125302,2025-12-01
197477,2025-12,ANG MO KIO,3 ROOM,509,ANG MO KIO AVE 8,04 TO 06,67.0,New Generation,1980,53 years 07 months,465000.0,509 ANG MO KIO AVE 8,560509,1.37400086510074,103.850139806283,2025-12-01
197873,2025-12,ANG MO KIO,5 ROOM,588B,ANG MO KIO ST 52,28 TO 30,112.0,DBSS,2011,84 years 10 months,1300000.0,588B ANG MO KIO ST 52,562588,1.37197571261128,103.853150894936,2025-12-01
198049,2025-12,BEDOK,3 ROOM,213,BEDOK NTH ST 1,07 TO 09,68.0,New Generation,1980,53 years 03 months,477000.0,213 BEDOK NTH ST 1,460213,1.32635298072477,103.932637214105,2025-12-01
198163,2025-12,BEDOK,3 ROOM,545,BEDOK NTH ST 3,01 TO 03,68.0,New Generation,1980,53 years 06 months,415000.0,545 BEDOK NTH ST 3,460545,1.3300514240201,103.924118031423,2025-12-01
198180,2025-12,BEDOK,3 ROOM,188B,BEDOK NTH ST 4,04 TO 06,68.0,Model A,2018,92 years 01 month,615000.0,188B BEDOK NTH ST 4,462188,1.33196249675669,103.941467643694,2025-12-01
198363,2025-12,BEDOK,3 ROOM,57,NEW UPP CHANGI RD,13 TO 15,68.0,Improved,1985,58 years 11 months,465000.0,57 NEW UPP CHANGI RD,461057,1.32424554153984,103.941568704132,2025-12-01
198383,2025-12,BEDOK,4 ROOM,520,BEDOK NTH AVE 1,10 TO 12,92.0,New Generation,1979,52 years 08 months,525000.0,520 BEDOK NTH AVE 1,460520,1.33046461779259,103.92813426172,2025-12-01
198629,2025-12,BEDOK,4 ROOM,628,BEDOK RESERVOIR RD,01 TO 03,95.0,New Generation,1983,56 years 02 months,567000.0,628 BEDOK RESERVOIR RD,470628,1.33489723692503,103.915006751045,2025-12-01
199129,2025-12,BISHAN,4 ROOM,246,BISHAN ST 22,04 TO 06,103.0,Model A,1992,65 years 09 months,830000.0,246 BISHAN ST 22,570246,1.36067416170778,103.843353629778,2025-12-01
199274,2025-12,BISHAN,5 ROOM,288,BISHAN ST 24,16 TO 18,123.0,Premium Apartment,1998,71 years 07 months,1138000.0,288 BISHAN ST 24,570288,1.35692385325352,103.845156525793,2025-12-01
199751,2025-12,BUKIT BATOK,4 ROOM,249,BT BATOK EAST AVE 5,10 TO 12,103.0,Model A,1985,58 years 05 months,605000.0,249 BT BATOK EAST AVE 5,650249,1.35061655709758,103.756564159717,2025-12-01
199985,2025-12,BUKIT BATOK,4 ROOM,436A,BT BATOK WEST AVE 5,04 TO 06,93.0,Model A,2020,93 years 03 months,631000.0,436A BT BATOK WEST AVE 5,651436,1.35912883183507,103.739978327829,2025-12-01
200178,2025-12,BUKIT BATOK,4 ROOM,464B,BT BATOK WEST AVE 8,07 TO 09,93.0,Model A,2021,94 years 08 months,655000.0,464B BT BATOK WEST AVE 8,652464,1.3579967815657,103.742102165928,2025-12-01
200218,2025-12,BUKIT BATOK,4 ROOM,460A,BT BATOK WEST AVE 9,10 TO 12,93.0,Model A,2020,93 years 06 months,650888.0,460A BT BATOK WEST AVE 9,651460,1.35426046045608,103.739309747692,2025-12-01
200467,2025-12,BUKIT BATOK,5 ROOM,443C,BT BATOK WEST AVE 8,07 TO 09,112.0,Improved,2019,92 years 04 months,803500.0,443C BT BATOK WEST AVE 8,653443,1.35557897178099,103.737833820151,2025-12-01
200468,2025-12,BUKIT BATOK,5 ROOM,445A,BT BATOK WEST AVE 8,04 TO 06,112.0,Improved,2019,92 years 02 months,720000.0,445A BT BATOK WEST AVE 8,651445,1.35097419119069,103.739240258216,2025-12-01
200533,2025-12,BUKIT BATOK,EXECUTIVE,524,BT BATOK ST 52,01 TO 03,146.0,Maisonette,1987,60 years 02 months,800000.0,524 BT BATOK ST 52,650524,1.35722338885356,103.752654717899,2025-12-01
200842,2025-12,BUKIT MERAH,3 ROOM,61,TELOK BLANGAH HTS,07 TO 09,67.0,New Generation,1976,49 years 10 months,418000.0,61 TELOK BLANGAH HTS,100061,1.27570500784019,103.812007084346,2025-12-01
201130,2025-12,BUKIT MERAH,4 ROOM,125,KIM TIAN RD,07 TO 09,107.0,Model A,1995,68 years 09 months,923000.0,125 KIM TIAN RD,160125,1.28363467623261,103.828128050891,2025-12-01
201645,2025-12,BUKIT PANJANG,4 ROOM,509,JELAPANG RD,10 TO 12,92.0,Model A2,1998,71 years 06 months,555000.0,509 JELAPANG RD,670509,1.38662703901062,103.76902161764,2025-12-01
202141,2025-12,BUKIT PANJANG,EXECUTIVE,652,SENJA LINK,10 TO 12,130.0,Premium Apartment,2001,75 years,780000.0,652 SENJA LINK,670652,1.38744862342634,103.763847246671,2025-12-01
202168,2025-12,BUKIT TIMAH,4 ROOM,4,TOH YI DR,04 TO 06,104.0,Model A,1988,61 years 09 months,938000.0,4 TOH YI DR,590004,1.3385120672333,103.774569823527,2025-12-01
202423,2025-12,CHOA CHU KANG,3 ROOM,110,TECK WHYE LANE,04 TO 06,73.0,Model A,1989,62 years 11 months,386000.0,110 TECK WHYE LANE,680110,1.37823695284901,103.752208325828,2025-12-01
202443,2025-12,CHOA CHU KANG,4 ROOM,818B,CHOA CHU KANG AVE 1,04 TO 06,92.0,Model A,2017,90 years 10 months,620000.0,818B CHOA CHU KANG AVE 1,682818,1.37725874802106,103.748291851205,2025-12-01
202960,2025-12,CHOA CHU KANG,5 ROOM,487C,CHOA CHU KANG AVE 5,07 TO 09,113.0,Improved,2016,89 years 07 months,715000.0,487C CHOA CHU KANG AVE 5,683487,1.37651280702577,103.739137682367,2025-12-01
203134,2025-12,CHOA CHU KANG,5 ROOM,562,CHOA CHU KANG ST 52,01 TO 03,129.0,Improved,1995,68 years 07 months,698000.0,562 CHOA CHU KANG ST 52,680562,1.39629871036485,103.746022677229,2025-12-01
204114,2025-12,GEYLANG,3 ROOM,302,UBI AVE 1,01 TO 03,64.0,Simplified,2000,73 years 06 months,485000.0,302 UBI AVE 1,400302,1.33002586987709,103.900995405582,2025-12-01
204195,2025-12,GEYLANG,4 ROOM,17B,CIRCUIT RD,13 TO 15,93.0,Model A,2016,90 years,1000000.0,17B CIRCUIT RD,372017,1.32994002346249,103.889189084492,2025-12-01
204196,2025-12,GEYLANG,4 ROOM,82B,CIRCUIT RD,19 TO 21,93.0,Model A,2020,93 years 06 months,909000.0,82B CIRCUIT RD,372082,1.32372337837321,103.889401456756,2025-12-01
204243,2025-12,GEYLANG,4 ROOM,11,HAIG RD,01 TO 03,92.0,New Generation,1976,49 years 08 months,633000.0,11 HAIG RD,430011,1.31483626965284,103.896637295254,2025-12-01
204348,2025-12,GEYLANG,5 ROOM,413,EUNOS RD 5,04 TO 06,135.0,Model A,1992,65 years 10 months,900000.0,413 EUNOS RD 5,400413,1.31851757833444,103.898787544418,2025-12-01
204541,2025-12,HOUGANG,3 ROOM,114,HOUGANG AVE 1,07 TO 09,66.0,New Generation,1982,55 years 03 months,428000.0,114 HOUGANG AVE 1,530114,1.35290845840879,103.888972338303,2025-12-01
204648,2025-12,HOUGANG,3 ROOM,309,HOUGANG AVE 5,10 TO 12,82.0,New Generation,1982,55 years 11 months,495000.0,309 HOUGANG AVE 5,530309,1.36620554681345,103.895152424666,2025-12-01
204654,2025-12,HOUGANG,3 ROOM,528,HOUGANG AVE 6,10 TO 12,74.0,Model A,1987,61 years,496000.0,528 HOUGANG AVE 6,530528,1.37511919152466,103.890726071611,2025-12-01
204765,2025-12,HOUGANG,3 ROOM,365C,UPP SERANGOON RD,07 TO 09,67.0,Model A,2018,91 years 04 months,615000.0,365C UPP SERANGOON RD,533365,1.36928451336933,103.89713459868,2025-12-01
205159,2025-12,HOUGANG,4 ROOM,158,HOUGANG ST 11,01 TO 03,103.0,Model A,1997,71 years 01 month,700000.0,158 HOUGANG ST 11,530158,1.35164022372477,103.880486217946,2025-12-01
205171,2025-12,HOUGANG,4 ROOM,376C,HOUGANG ST 32,16 TO 18,92.0,Model A,2016,89 years 04 months,750000.0,376C HOUGANG ST 32,533376,1.36406322514465,103.893679750644,2025-12-01
205548,2025-12,HOUGANG,EXECUTIVE,449,HOUGANG AVE 10,01 TO 03,148.0,Maisonette,1991,64 years 02 months,970000.0,449 HOUGANG AVE 10,530449,1.37878098243894,103.895153601863,2025-12-01
205566,2025-12,HOUGANG,EXECUTIVE,427,HOUGANG AVE 6,01 TO 03,145.0,Maisonette,1990,63 years 05 months,968000.0,427 HOUGANG AVE 6,530427,1.37447080577543,103.893091053432,2025-12-01
205567,2025-12,HOUGANG,EXECUTIVE,533,HOUGANG AVE 6,07 TO 09,145.0,Maisonette,1988,61 years 05 months,1050000.0,533 HOUGANG AVE 6,530533,1.37583341032049,103.891885076183,2025-12-01
206161,2025-12,JURONG WEST,3 ROOM,186,BOON LAY AVE,01 TO 03,59.0,Improved,1975,48 years 11 months,335000.0,186 BOON LAY AVE,640186,1.34572728320792,103.711027373165,2025-12-01
206659,2025-12,JURONG WEST,4 ROOM,518,JURONG WEST ST 52,13 TO 15,104.0,Model A,1984,58 years,635000.0,518 JURONG WEST ST 52,640518,1.34508681384068,103.717978485296,2025-12-01
206695,2025-12,JURONG WEST,4 ROOM,642,JURONG WEST ST 61,13 TO 15,100.0,Model A,1998,71 years 10 months,550888.0,642 JURONG WEST ST 61,640642,1.34036989694199,103.695839824959,2025-12-01
207032,2025-12,JURONG WEST,5 ROOM,196B,BOON LAY DR,04 TO 06,113.0,Improved,2015,88 years 06 months,758000.0,196B BOON LAY DR,642196,1.34278860969526,103.714301445473,2025-12-01
207177,2025-12,JURONG WEST,5 ROOM,645,JURONG WEST ST 61,10 TO 12,120.0,Improved,1998,71 years 10 months,690000.0,645 JURONG WEST ST 61,640645,1.33903532010243,103.696461338372,2025-12-01
207280,2025-12,JURONG WEST,5 ROOM,658C,JURONG WEST ST 65,07 TO 09,112.0,Improved,2001,74 years 09 months,635000.0,658C JURONG WEST ST 65,643658,1.33685328006249,103.700477310165,2025-12-01
207747,2025-12,KALLANG/WHAMPOA,3 ROOM,65,KALLANG BAHRU,10 TO 12,65.0,Improved,1981,54 years 02 months,460000.0,65 KALLANG BAHRU,330065,1.31969547154613,103.868364964604,2025-12-01
207766,2025-12,KALLANG/WHAMPOA,3 ROOM,123,MCNAIR RD,04 TO 06,64.0,Simplified,1987,60 years 05 months,490000.0,123 MCNAIR RD,320123,1.31844233518161,103.856349883909,2025-12-01
208046,2025-12,KALLANG/WHAMPOA,4 ROOM,113B,MCNAIR RD,25 TO 27,93.0,Premium Apartment,2017,91 years 01 month,1118000.0,113B MCNAIR RD,323113,1.32118140104797,103.860568176564,2025-12-01
208103,2025-12,KALLANG/WHAMPOA,4 ROOM,18,ST. GEORGE'S RD,10 TO 12,91.0,New Generation,1984,58 years 01 month,650000.0,18 ST. GEORGE'S RD,320018,1.32406159729828,103.862833773877,2025-12-01
208200,2025-12,KALLANG/WHAMPOA,5 ROOM,8,BOON KENG RD,19 TO 21,117.0,DBSS,2011,84 years 03 months,1450888.0,8 BOON KENG RD,330008,1.31642489627751,103.861501638313,2025-12-01
208443,2025-12,MARINE PARADE,5 ROOM,12,MARINE TER,01 TO 03,120.0,Standard,1975,48 years 02 months,790000.0,12 MARINE TER,440012,1.30460708550376,103.915739855584,2025-12-01
208733,2025-12,PASIR RIS,5 ROOM,630,PASIR RIS DR 3,01 TO 03,121.0,Improved,1995,68 years 07 months,700000.0,630 PASIR RIS DR 3,510630,1.3783821527515,103.941096778597,2025-12-01
209042,2025-12,PUNGGOL,2 ROOM,622C,PUNGGOL CTRL,13 TO 15,46.0,Model A,2014,87 years 05 months,385000.0,622C PUNGGOL CTRL,823622,1.4006620149821,103.910914385755,2025-12-01
209417,2025-12,PUNGGOL,4 ROOM,405B,NORTHSHORE DR,19 TO 21,94.0,Model A,2021,94 years 06 months,750000.0,405B NORTHSHORE DR,822405,1.41606976127308,103.901828257181,2025-12-01
209586,2025-12,PUNGGOL,4 ROOM,612B,PUNGGOL DR,04 TO 06,93.0,Model A,2012,86 years 01 month,658000.0,612B PUNGGOL DR,822612,1.40493858379942,103.908157161266,2025-12-01
209951,2025-12,PUNGGOL,4 ROOM,313C,SUMANG LINK,07 TO 09,92.0,Model A,2015,88 years 08 months,672000.0,313C SUMANG LINK,823313,1.41062885103467,103.901551852458,2025-12-01
210259,2025-12,PUNGGOL,5 ROOM,202A,PUNGGOL FIELD,07 TO 09,110.0,Improved,2004,77 years 07 months,650000.0,202A PUNGGOL FIELD,821202,1.39966422309229,103.904495606279,2025-12-01
210529,2025-12,QUEENSTOWN,3 ROOM,30,GHIM MOH LINK,22 TO 24,68.0,Model A,2018,91 years 07 months,798000.0,30 GHIM MOH LINK,272030,1.30881985260159,103.7838389718,2025-12-01
210804,2025-12,QUEENSTOWN,4 ROOM,30,GHIM MOH LINK,28 TO 30,93.0,Model A,2018,91 years 07 months,1092000.0,30 GHIM MOH LINK,272030,1.30881985260159,103.7838389718,2025-12-01
210805,2025-12,QUEENSTOWN,4 ROOM,33,GHIM MOH LINK,37 TO 39,93.0,Model A,2018,91 years 07 months,1190888.0,33 GHIM MOH LINK,270033,1.30977118024449,103.784714017294,2025-12-01
210893,2025-12,QUEENSTOWN,4 ROOM,50,STRATHMORE AVE,07 TO 09,85.0,Model A,2006,79 years 10 months,883000.0,50 STRATHMORE AVE,140050,1.29384533839787,103.808727859208,2025-12-01
211609,2025-12,SEMBAWANG,4 ROOM,320,SEMBAWANG CL,01 TO 03,100.0,Model A,1999,72 years 07 months,548800.0,320 SEMBAWANG CL,750320,1.44643784156419,103.81885853477,2025-12-01
211706,2025-12,SEMBAWANG,4 ROOM,501C,WELLINGTON CIRCLE,10 TO 12,91.0,Model A,2001,74 years 09 months,555000.0,501C WELLINGTON CIRCLE,753501,1.45169408187552,103.821715715582,2025-12-01
211921,2025-12,SEMBAWANG,5 ROOM,121A,CANBERRA ST,04 TO 06,113.0,Improved,2018,91 years 02 months,715000.0,121A CANBERRA ST,751121,1.4476018660383,103.833517820559,2025-12-01
211958,2025-12,SEMBAWANG,5 ROOM,335,SEMBAWANG CL,07 TO 09,121.0,Improved,1999,72 years 11 months,715888.0,335 SEMBAWANG CL,750335,1.44716347336281,103.815013547479,2025-12-01
212169,2025-12,SENGKANG,2 ROOM,458C,SENGKANG WEST RD,10 TO 12,48.0,2-room,2020,93 years 11 months,385000.0,458C SENGKANG WEST RD,793458,1.39285734486634,103.870875153546,2025-12-01
212249,2025-12,SENGKANG,3 ROOM,414B,FERNVALE LINK,01 TO 03,68.0,Model A,2016,89 years 03 months,490000.0,414B FERNVALE LINK,792414,1.39001961783905,103.879574314696,2025-12-01
212354,2025-12,SENGKANG,4 ROOM,336D,ANCHORVALE CRES,10 TO 12,92.0,Premium Apartment,2015,89 years 01 month,725000.0,336D ANCHORVALE CRES,544336,1.39776902487201,103.888235889907,2025-12-01
212355,2025-12,SENGKANG,4 ROOM,338A,ANCHORVALE CRES,10 TO 12,93.0,Model A,2018,91 years 06 months,700000.0,338A ANCHORVALE CRES,541338,1.39926289122119,103.888859316617,2025-12-01
212825,2025-12,SENGKANG,4 ROOM,416B,FERNVALE LINK,07 TO 09,93.0,Model A,2016,89 years 02 months,658000.0,416B FERNVALE LINK,792416,1.39048519034443,103.880509545623,2025-12-01
212826,2025-12,SENGKANG,4 ROOM,417A,FERNVALE LINK,19 TO 21,94.0,Model A,2018,91 years 09 months,718000.0,417A FERNVALE LINK,791417,1.39157654101303,103.880697269897,2025-12-01
212982,2025-12,SENGKANG,4 ROOM,184B,RIVERVALE CRES,13 TO 15,90.0,Model A,2003,76 years 07 months,560000.0,184B RIVERVALE CRES,542184,1.39248357533523,103.907225369474,2025-12-01
213501,2025-12,SENGKANG,5 ROOM,404A,FERNVALE LANE,04 TO 06,112.0,Premium Apartment,2004,77 years 05 months,615000.0,404A FERNVALE LANE,791404,1.38834821726981,103.873814853605,2025-12-01
213502,2025-12,SENGKANG,5 ROOM,405B,FERNVALE LANE,19 TO 21,112.0,Premium Apartment,2004,77 years 03 months,700000.0,405B FERNVALE LANE,792405,1.38900200354175,103.873670202802,2025-12-01
213772,2025-12,SENGKANG,5 ROOM,433B,SENGKANG WEST WAY,10 TO 12,113.0,Improved,2014,87 years 11 months,750000.0,433B SENGKANG WEST WAY,792433,1.39388894272879,103.877494624525,2025-12-01
213835,2025-12,SENGKANG,EXECUTIVE,120B,RIVERVALE DR,04 TO 06,141.0,Premium Apartment,2001,74 years 04 months,860000.0,120B RIVERVALE DR,542120,1.38579818238123,103.904394269204,2025-12-01
214073,2025-12,SERANGOON,4 ROOM,101,SERANGOON NTH AVE 1,01 TO 03,91.0,New Generation,1985,58 years 04 months,510000.0,101 SERANGOON NTH AVE 1,550101,1.37103631988089,103.870360910842,2025-12-01
214101,2025-12,SERANGOON,4 ROOM,536,SERANGOON NTH AVE 4,01 TO 03,103.0,Model A,1992,66 years,585000.0,536 SERANGOON NTH AVE 4,550536,1.3738757370708,103.875172781418,2025-12-01
214334,2025-12,TAMPINES,3 ROOM,105,TAMPINES ST 11,07 TO 09,79.0,Model A,1982,56 years 01 month,512000.0,105 TAMPINES ST 11,521105,1.3480931246949,103.947177564477,2025-12-01
214481,2025-12,TAMPINES,3 ROOM,494D,TAMPINES ST 43,01 TO 03,68.0,Model A,2015,88 years 11 months,550000.0,494D TAMPINES ST 43,524494,1.36380015761494,103.953438683803,2025-12-01
214686,2025-12,TAMPINES,4 ROOM,859A,TAMPINES AVE 5,10 TO 12,104.0,Model A,1988,61 years 04 months,715000.0,859A TAMPINES AVE 5,521859,1.35506307407851,103.938057162871,2025-12-01
214951,2025-12,TAMPINES,4 ROOM,610C,TAMPINES NTH DR 1,04 TO 06,93.0,Model A,2020,94 years,768888.0,610C TAMPINES NTH DR 1,523610,1.36441776002022,103.935558340158,2025-12-01
215115,2025-12,TAMPINES,4 ROOM,359,TAMPINES ST 34,01 TO 03,103.0,Model A,1996,69 years 04 months,620000.0,359 TAMPINES ST 34,520359,1.35588169299314,103.961638534274,2025-12-01
215232,2025-12,TAMPINES,4 ROOM,606D,TAMPINES ST 61,13 TO 15,92.0,Model A,2020,93 years 03 months,752888.0,606D TAMPINES ST 61,524606,1.36185122194834,103.937073184127,2025-12-01
215736,2025-12,TAMPINES,5 ROOM,450D,TAMPINES ST 42,10 TO 12,123.0,Improved,1996,69 years 10 months,890000.0,450D TAMPINES ST 42,524450,1.35713536413244,103.952873767554,2025-12-01
215981,2025-12,TAMPINES,EXECUTIVE,863,TAMPINES ST 83,10 TO 12,146.0,Maisonette,1988,61 years 04 months,1050000.0,863 TAMPINES ST 83,520863,1.35545983628464,103.935614377579,2025-12-01
216156,2025-12,TOA PAYOH,3 ROOM,126,LOR 1 TOA PAYOH,13 TO 15,67.0,Improved,1970,43 years 02 months,410000.0,126 LOR 1 TOA PAYOH,310126,1.33781465652998,103.84513085219,2025-12-01
216214,2025-12,TOA PAYOH,3 ROOM,34,LOR 5 TOA PAYOH,01 TO 03,67.0,Improved,1970,43 years 02 months,356000.0,34 LOR 5 TOA PAYOH,310034,1.33479973301368,103.854155463,2025-12-01
216226,2025-12,TOA PAYOH,3 ROOM,51,LOR 6 TOA PAYOH,10 TO 12,73.0,Standard,1983,56 years 07 months,430000.0,51 LOR 6 TOA PAYOH,310051,1.33778337648439,103.852507455855,2025-12-01
216318,2025-12,TOA PAYOH,3 ROOM,101,POTONG PASIR AVE 1,16 TO 18,74.0,Model A,1984,57 years 10 months,610000.0,101 POTONG PASIR AVE 1,350101,1.33315710123237,103.868380398922,2025-12-01
216389,2025-12,TOA PAYOH,3 ROOM,199,TOA PAYOH NTH,01 TO 03,76.0,Improved,1982,55 years 02 months,410000.0,199 TOA PAYOH NTH,310199,1.34203351013688,103.850648936995,2025-12-01
216568,2025-12,TOA PAYOH,4 ROOM,130A,LOR 1 TOA PAYOH,22 TO 24,93.0,Model A,2018,91 years 09 months,1125000.0,130A LOR 1 TOA PAYOH,311130,1.33739384161997,103.843183616479,2025-12-01
216705,2025-12,TOA PAYOH,4 ROOM,142,POTONG PASIR AVE 3,01 TO 03,104.0,Model A,1984,57 years 08 months,755000.0,142 POTONG PASIR AVE 3,350142,1.33320406699901,103.866992603867,2025-12-01
216797,2025-12,TOA PAYOH,4 ROOM,200,TOA PAYOH NTH,07 TO 09,87.0,Improved,1973,46 years 08 months,508888.0,200 TOA PAYOH NTH,310200,1.34167292743585,103.851007776843,2025-12-01
216847,2025-12,TOA PAYOH,5 ROOM,156,LOR 1 TOA PAYOH,04 TO 06,118.0,Improved,1999,72 years 03 months,1038888.0,156 LOR 1 TOA PAYOH,310156,1.33256473217629,103.845206893398,2025-12-01
216890,2025-12,TOA PAYOH,5 ROOM,142,LOR 2 TOA PAYOH,07 TO 09,115.0,Improved,2001,74 years 02 months,1086000.0,142 LOR 2 TOA PAYOH,310142,1.33583774995002,103.845162997311,2025-12-01
216919,2025-12,TOA PAYOH,5 ROOM,50,LOR 5 TOA PAYOH,10 TO 12,123.0,Improved,1993,66 years 05 months,881000.0,50 LOR 5 TOA PAYOH,310050,1.33698988933191,103.852692901602,2025-12-01
217007,2025-12,WOODLANDS,2 ROOM,182A,WOODLANDS ST 13,19 TO 21,47.0,Model A,2019,92 years 11 months,408000.0,182A WOODLANDS ST 13,731182,1.43569654168682,103.775515756855,2025-12-01
217229,2025-12,WOODLANDS,4 ROOM,33,MARSILING DR,04 TO 06,98.0,New Generation,1978,51 years 02 months,460000.0,33 MARSILING DR,730033,1.44355825410306,103.772015392214,2025-12-01
217371,2025-12,WOODLANDS,4 ROOM,737,WOODLANDS CIRCLE,10 TO 12,100.0,Model A2,1998,71 years 03 months,540000.0,737 WOODLANDS CIRCLE,730737,1.4436783632097,103.796822911109,2025-12-01
217512,2025-12,WOODLANDS,4 ROOM,573C,WOODLANDS DR 16,10 TO 12,93.0,Model A,2018,91 years 08 months,700888.0,573C WOODLANDS DR 16,733573,1.43050173672501,103.797682947729,2025-12-01
217602,2025-12,WOODLANDS,4 ROOM,891B,WOODLANDS DR 50,04 TO 06,100.0,Model A,1996,69 years 11 months,540000.0,891B WOODLANDS DR 50,731891,1.43791227793029,103.79053981455,2025-12-01
217618,2025-12,WOODLANDS,4 ROOM,623,WOODLANDS DR 52,10 TO 12,102.0,Model A,1998,71 years 11 months,568000.0,623 WOODLANDS DR 52,730623,1.43484925635895,103.798922420494,2025-12-01
217874,2025-12,WOODLANDS,4 ROOM,319,WOODLANDS ST 31,01 TO 03,103.0,Model A,1993,66 years 06 months,520000.0,319 WOODLANDS ST 31,730319,1.43150888069834,103.777400269235,2025-12-01
218251,2025-12,WOODLANDS,5 ROOM,671,WOODLANDS DR 71,04 TO 06,111.0,Improved,2000,74 years,688000.0,671 WOODLANDS DR 71,730671,1.43905964105019,103.798774829516,2025-12-01
218388,2025-12,WOODLANDS,5 ROOM,178,WOODLANDS ST 13,10 TO 12,121.0,Improved,1986,59 years 08 months,618000.0,178 WOODLANDS ST 13,730178,1.43464080601813,103.777670022616,2025-12-01
218565,2025-12,WOODLANDS,EXECUTIVE,848,WOODLANDS ST 82,10 TO 12,161.0,Apartment,1995,68 years 04 months,955000.0,848 WOODLANDS ST 82,730848,1.44178218752461,103.791758131626,2025-12-01
219404,2025-12,YISHUN,4 ROOM,317A,YISHUN AVE 9,10 TO 12,92.0,Model A,2015,89 years,618888.0,317A YISHUN AVE 9,761317,1.43450592896688,103.843292004282,2025-12-01
220023,2025-12,YISHUN,5 ROOM,309,YISHUN RING RD,10 TO 12,125.0,Improved,1995,68 years 04 months,733666.0,309 YISHUN RING RD,760309,1.43237650422142,103.840587727638,2025-12-01
220024,2025-12,YISHUN,5 ROOM,796,YISHUN RING RD,04 TO 06,132.0,Improved,1987,60 years 02 months,720000.0,796 YISHUN RING RD,760796,1.41970956748498,103.833448229097,2025-12-01
197050,2025-12,ANG MO KIO,3 ROOM,332,ANG MO KIO AVE 1,07 TO 09,68.0,New Generation,1981,54 years 02 months,425000.0,332 ANG MO KIO AVE 1,560332,1.36167030761833,103.851955453764,2025-12-02
197373,2025-12,ANG MO KIO,3 ROOM,117,ANG MO KIO AVE 4,10 TO 12,74.0,New Generation,1978,51 years 06 months,475000.0,117 ANG MO KIO AVE 4,560117,1.3737170825368,103.835610469339,2025-12-02
197438,2025-12,ANG MO KIO,3 ROOM,502,ANG MO KIO AVE 5,01 TO 03,82.0,New Generation,1981,54 years 02 months,517000.0,502 ANG MO KIO AVE 5,560502,1.37572474765516,103.849934305516,2025-12-02
197580,2025-12,ANG MO KIO,4 ROOM,419,ANG MO KIO AVE 10,07 TO 09,99.0,New Generation,1979,52 years 09 months,565000.0,419 ANG MO KIO AVE 10,560419,1.36534669720177,103.85415182597,2025-12-02
197654,2025-12,ANG MO KIO,4 ROOM,109,ANG MO KIO AVE 4,07 TO 09,92.0,New Generation,1978,51 years 09 months,588000.0,109 ANG MO KIO AVE 4,560109,1.3700965375834,103.837687766047,2025-12-02
197849,2025-12,ANG MO KIO,5 ROOM,353,ANG MO KIO ST 32,16 TO 18,110.0,Improved,2001,74 years 10 months,1000800.0,353 ANG MO KIO ST 32,560353,1.36406807879641,103.851612284582,2025-12-02
197880,2025-12,ANG MO KIO,5 ROOM,588C,ANG MO KIO ST 52,07 TO 09,112.0,DBSS,2011,84 years 09 months,1180000.0,588C ANG MO KIO ST 52,563588,1.37183157010083,103.853670978083,2025-12-02
197950,2025-12,BEDOK,3 ROOM,521,BEDOK NTH AVE 1,01 TO 03,67.0,New Generation,1979,52 years 08 months,375000.0,521 BEDOK NTH AVE 1,460521,1.33025307073546,103.927058345096,2025-12-02
198058,2025-12,BEDOK,3 ROOM,419,BEDOK NTH ST 1,10 TO 12,68.0,New Generation,1979,52 years 02 months,450000.0,419 BEDOK NTH ST 1,460419,1.32696621417456,103.928135771625,2025-12-02
198503,2025-12,BEDOK,4 ROOM,78,BEDOK NTH RD,04 TO 06,91.0,New Generation,1978,51 years 07 months,480000.0,78 BEDOK NTH RD,460078,1.32726007220341,103.940848770214,2025-12-02
198556,2025-12,BEDOK,4 ROOM,186B,BEDOK NTH ST 4,04 TO 06,93.0,Model A,2018,92 years 01 month,816888.0,186B BEDOK NTH ST 4,462186,1.33003736213542,103.940842245677,2025-12-02
198667,2025-12,BEDOK,4 ROOM,765,BEDOK RESERVOIR VIEW,13 TO 15,105.0,Premium Apartment,2000,74 years 01 month,810888.0,765 BEDOK RESERVOIR VIEW,470765,1.33596106828604,103.935990113555,2025-12-02
198691,2025-12,BEDOK,4 ROOM,166,BEDOK STH AVE 3,07 TO 09,104.0,Model A,1985,58 years 04 months,645000.0,166 BEDOK STH AVE 3,460166,1.32004079860245,103.945196685812,2025-12-02
199256,2025-12,BISHAN,5 ROOM,192,BISHAN ST 13,13 TO 15,120.0,Improved,1987,60 years 09 months,1100000.0,192 BISHAN ST 13,570192,1.34897431725156,103.851306462341,2025-12-02
199333,2025-12,BISHAN,EXECUTIVE,212,BISHAN ST 23,04 TO 06,149.0,Maisonette,1992,65 years 06 months,1200000.0,212 BISHAN ST 23,570212,1.35627246709414,103.848249854181,2025-12-02
199516,2025-12,BUKIT BATOK,3 ROOM,215,BT BATOK ST 21,07 TO 09,67.0,New Generation,1984,58 years,418000.0,215 BT BATOK ST 21,650215,1.34677496983575,103.753335935038,2025-12-02
199535,2025-12,BUKIT BATOK,3 ROOM,304,BT BATOK ST 31,07 TO 09,68.0,New Generation,1985,58 years 07 months,420000.0,304 BT BATOK ST 31,650304,1.357471521421,103.747948828709,2025-12-02
199605,2025-12,BUKIT BATOK,3 ROOM,505,BT BATOK ST 52,07 TO 09,69.0,Improved,1988,61 years 03 months,423088.0,505 BT BATOK ST 52,650505,1.35191995209035,103.753670851157,2025-12-02
199691,2025-12,BUKIT BATOK,3 ROOM,129,BT BATOK WEST AVE 6,07 TO 09,73.0,Model A,1984,57 years 11 months,428000.0,129 BT BATOK WEST AVE 6,650129,1.35142975219106,103.746030739669,2025-12-02
200692,2025-12,BUKIT MERAH,3 ROOM,95A,HENDERSON RD,13 TO 15,68.0,Model A,2019,92 years 06 months,735000.0,95A HENDERSON RD,151095,1.28649254110004,103.82143358771,2025-12-02
200762,2025-12,BUKIT MERAH,3 ROOM,37,JLN RUMAH TINGGI,04 TO 06,53.0,Standard,1969,42 years 08 months,315000.0,37 JLN RUMAH TINGGI,150037,1.28922928913172,103.809193412567,2025-12-02
200906,2025-12,BUKIT MERAH,3 ROOM,33,TELOK BLANGAH WAY,04 TO 06,70.0,Improved,1976,49 years 05 months,398000.0,33 TELOK BLANGAH WAY,90033,1.27436196353296,103.822184004574,2025-12-02
201188,2025-12,BUKIT MERAH,4 ROOM,17,TELOK BLANGAH CRES,13 TO 15,100.0,Model A,2002,75 years 02 months,808000.0,17 TELOK BLANGAH CRES,90017,1.27776786253278,103.821702419401,2025-12-02
201535,2025-12,BUKIT PANJANG,3 ROOM,485,SEGAR RD,07 TO 09,67.0,Model A,2014,88 years 01 month,488000.0,485 SEGAR RD,670485,1.38868132378093,103.771312569429,2025-12-02
201616,2025-12,BUKIT PANJANG,4 ROOM,443C,FAJAR RD,01 TO 03,93.0,Model A,2016,90 years 01 month,610000.0,443C FAJAR RD,673443,1.38057053056182,103.76973269177,2025-12-02
201728,2025-12,BUKIT PANJANG,4 ROOM,168,PETIR RD,13 TO 15,102.0,Model A,1998,71 years 09 months,793888.0,168 PETIR RD,670168,1.37758285592609,103.764402344565,2025-12-02
202236,2025-12,CENTRAL AREA,3 ROOM,30,KELANTAN RD,10 TO 12,76.0,Improved,1981,54 years 08 months,620000.0,30 KELANTAN RD,200030,1.30547181939625,103.856879434972,2025-12-02
202745,2025-12,CHOA CHU KANG,4 ROOM,227,CHOA CHU KANG CTRL,01 TO 03,105.0,Model A,1993,66 years 07 months,533000.0,227 CHOA CHU KANG CTRL,680227,1.38118249686415,103.745966246926,2025-12-02
203115,2025-12,CHOA CHU KANG,5 ROOM,688A,CHOA CHU KANG DR,10 TO 12,110.0,Improved,2002,75 years 04 months,560000.0,688A CHOA CHU KANG DR,681688,1.40396387456119,103.750566306243,2025-12-02
203280,2025-12,CHOA CHU KANG,EXECUTIVE,420,CHOA CHU KANG AVE 4,16 TO 18,150.0,Apartment,1993,66 years 07 months,925000.0,420 CHOA CHU KANG AVE 4,680420,1.38147127512783,103.741375947485,2025-12-02
203502,2025-12,CLEMENTI,3 ROOM,608,CLEMENTI WEST ST 1,10 TO 12,67.0,New Generation,1979,53 years,420000.0,608 CLEMENTI WEST ST 1,120608,1.30434110257324,103.766529796163,2025-12-02
203706,2025-12,CLEMENTI,4 ROOM,311B,CLEMENTI AVE 4,31 TO 33,82.0,DBSS,2014,88 years 01 month,1005000.0,311B CLEMENTI AVE 4,122311,1.31944669077178,103.765649446368,2025-12-02
203753,2025-12,CLEMENTI,4 ROOM,711,CLEMENTI WEST ST 2,10 TO 12,92.0,New Generation,1980,54 years,516800.0,711 CLEMENTI WEST ST 2,120711,1.30484423498146,103.76110706384,2025-12-02
204148,2025-12,GEYLANG,3 ROOM,317,UBI AVE 1,01 TO 03,64.0,Simplified,1985,59 years 01 month,475000.0,317 UBI AVE 1,400317,1.32857757757936,103.902800620956,2025-12-02
205067,2025-12,HOUGANG,4 ROOM,315,HOUGANG AVE 5,01 TO 03,92.0,New Generation,1993,66 years 05 months,555000.0,315 HOUGANG AVE 5,530315,1.36487118219384,103.894979026095,2025-12-02
205386,2025-12,HOUGANG,5 ROOM,997B,BUANGKOK CRES,10 TO 12,113.0,Improved,2018,92 years,811888.0,997B BUANGKOK CRES,532997,1.38590156781199,103.8813870478,2025-12-02
205403,2025-12,HOUGANG,5 ROOM,103,HOUGANG AVE 1,01 TO 03,135.0,Model A,1983,57 years 03 months,680000.0,103 HOUGANG AVE 1,530103,1.35528223434405,103.89036014824,2025-12-02
205737,2025-12,JURONG EAST,3 ROOM,211,JURONG EAST ST 21,04 TO 06,67.0,New Generation,1983,56 years 05 months,426000.0,211 JURONG EAST ST 21,600211,1.33866911059386,103.740292528065,2025-12-02
205798,2025-12,JURONG EAST,3 ROOM,304,JURONG EAST ST 32,07 TO 09,67.0,New Generation,1983,56 years 11 months,392000.0,304 JURONG EAST ST 32,600304,1.3451446878869,103.734750459542,2025-12-02
206140,2025-12,JURONG WEST,2 ROOM,698A,JURONG WEST CTRL 3,10 TO 12,47.0,Model A,2017,90 years 11 months,428000.0,698A JURONG WEST CTRL 3,641698,1.341091607667,103.708023659485,2025-12-02
206305,2025-12,JURONG WEST,3 ROOM,114,HO CHING RD,01 TO 03,76.0,Improved,1971,44 years 06 months,335000.0,114 HO CHING RD,610114,1.33378944321337,103.72411125115,2025-12-02
206423,2025-12,JURONG WEST,3 ROOM,536,JURONG WEST ST 52,01 TO 03,67.0,New Generation,1983,56 years 10 months,375000.0,536 JURONG WEST ST 52,640536,1.34992094562962,103.716717859141,2025-12-02
206457,2025-12,JURONG WEST,3 ROOM,113,TAO CHING RD,01 TO 03,67.0,Improved,1971,44 years 08 months,335000.0,113 TAO CHING RD,610113,1.33318449829266,103.724354324887,2025-12-02
206529,2025-12,JURONG WEST,4 ROOM,197C,BOON LAY DR,10 TO 12,93.0,Model A,2015,88 years 05 months,678000.0,197C BOON LAY DR,643197,1.34340319524201,103.713686073692,2025-12-02
206582,2025-12,JURONG WEST,4 ROOM,721,JURONG WEST AVE 5,01 TO 03,104.0,Model A,1989,63 years,505000.0,721 JURONG WEST AVE 5,640721,1.34399335727786,103.697595848966,2025-12-02
206905,2025-12,JURONG WEST,4 ROOM,835,JURONG WEST ST 81,07 TO 09,104.0,Model A,1989,63 years,520000.0,835 JURONG WEST ST 81,640835,1.34350459053029,103.693705521036,2025-12-02
207225,2025-12,JURONG WEST,5 ROOM,652B,JURONG WEST ST 61,16 TO 18,110.0,Improved,2002,75 years 07 months,668000.0,652B JURONG WEST ST 61,642652,1.33664220672947,103.697989689004,2025-12-02
207277,2025-12,JURONG WEST,5 ROOM,677A,JURONG WEST ST 64,07 TO 09,110.0,Premium Apartment,2008,81 years 07 months,650000.0,677A JURONG WEST ST 64,641677,1.34563047616405,103.705038025438,2025-12-02
207278,2025-12,JURONG WEST,5 ROOM,684C,JURONG WEST ST 64,07 TO 09,111.0,Premium Apartment,2000,73 years 09 months,692888.0,684C JURONG WEST ST 64,643684,1.34358659212537,103.704502970823,2025-12-02
207474,2025-12,JURONG WEST,5 ROOM,179,YUNG SHENG RD,04 TO 06,116.0,Improved,2001,74 years 05 months,588000.0,179 YUNG SHENG RD,610179,1.33368866801987,103.720747470236,2025-12-02
207584,2025-12,JURONG WEST,EXECUTIVE,862,JURONG WEST ST 81,01 TO 03,144.0,Apartment,1996,70 years,725000.0,862 JURONG WEST ST 81,640862,1.3501424810666,103.696684591473,2025-12-02
208206,2025-12,KALLANG/WHAMPOA,4 ROOM,8B,UPP BOON KENG RD,19 TO 21,95.0,Premium Apartment,2017,90 years 08 months,1148888.0,8B UPP BOON KENG RD,382008,1.31234447247543,103.869898299245,2025-12-02
208426,2025-12,MARINE PARADE,3 ROOM,57,MARINE TER,01 TO 03,65.0,Improved,1975,48 years 06 months,482000.0,57 MARINE TER,440057,1.30651257347314,103.915484799847,2025-12-02
208631,2025-12,PASIR RIS,4 ROOM,412,PASIR RIS DR 6,13 TO 15,113.0,Model A,1989,62 years 11 months,706888.0,412 PASIR RIS DR 6,510412,1.37338314330641,103.955097085831,2025-12-02
208660,2025-12,PASIR RIS,4 ROOM,109,PASIR RIS ST 11,10 TO 12,111.0,Model A,1990,63 years 10 months,610000.0,109 PASIR RIS ST 11,510109,1.3684636800666,103.956009070114,2025-12-02
208661,2025-12,PASIR RIS,4 ROOM,114,PASIR RIS ST 11,04 TO 06,94.0,New Generation,1989,62 years 07 months,585000.0,114 PASIR RIS ST 11,510114,1.36845058392966,103.954961424604,2025-12-02
208769,2025-12,PASIR RIS,5 ROOM,612,ELIAS RD,10 TO 12,128.0,Improved,1995,68 years 08 months,780000.0,612 ELIAS RD,510612,1.3746298510128,103.942021009739,2025-12-02
208850,2025-12,PASIR RIS,5 ROOM,104,PASIR RIS ST 12,10 TO 12,122.0,Improved,1989,62 years 05 months,715000.0,104 PASIR RIS ST 12,510104,1.36795278578738,103.958702642513,2025-12-02
208851,2025-12,PASIR RIS,5 ROOM,188,PASIR RIS ST 12,10 TO 12,124.0,Improved,1993,66 years 10 months,748000.0,188 PASIR RIS ST 12,510188,1.36529812070636,103.959160173062,2025-12-02
208937,2025-12,PASIR RIS,5 ROOM,746,PASIR RIS ST 71,13 TO 15,127.0,Improved,1996,70 years,720000.0,746 PASIR RIS ST 71,510746,1.37860702854688,103.935156189799,2025-12-02
209200,2025-12,PUNGGOL,3 ROOM,665C,PUNGGOL DR,10 TO 12,68.0,Premium Apartment,2016,89 years 03 months,575000.0,665C PUNGGOL DR,823665,1.40149164608042,103.914459128885,2025-12-02
209232,2025-12,PUNGGOL,3 ROOM,604C,PUNGGOL RD,01 TO 03,68.0,Model A,2012,85 years 11 months,514000.0,604C PUNGGOL RD,823604,1.40366537588463,103.907532294779,2025-12-02
209481,2025-12,PUNGGOL,4 ROOM,409A,NORTHSHORE DR,22 TO 24,94.0,Model A,2021,94 years 06 months,768000.0,409A NORTHSHORE DR,821409,1.41721444322017,103.902200329239,2025-12-02
210006,2025-12,PUNGGOL,4 ROOM,234B,SUMANG LANE,13 TO 15,93.0,Model A,2018,92 years,650000.0,234B SUMANG LANE,822234,1.40168217037576,103.891667378516,2025-12-02
210380,2025-12,PUNGGOL,5 ROOM,213C,PUNGGOL WALK,13 TO 15,113.0,Improved,2015,88 years 05 months,838000.0,213C PUNGGOL WALK,823213,1.4005984949975,103.898920186089,2025-12-02
210566,2025-12,QUEENSTOWN,3 ROOM,87,DAWSON RD,19 TO 21,65.0,Premium Apartment,2016,89 years 09 months,816888.0,87 DAWSON RD,141087,1.2957304268451,103.809759937443,2025-12-02
210738,2025-12,QUEENSTOWN,3 ROOM,53,STRATHMORE AVE,34 TO 36,62.0,Premium Apartment,2020,94 years 01 month,820000.0,53 STRATHMORE AVE,140053,1.29277858643806,103.808445960195,2025-12-02
210892,2025-12,QUEENSTOWN,4 ROOM,18B,HOLLAND DR,01 TO 03,87.0,Model A,2012,85 years 10 months,1018000.0,18B HOLLAND DR,273018,1.31101768983656,103.791451916991,2025-12-02
211028,2025-12,QUEENSTOWN,5 ROOM,52,STRATHMORE AVE,37 TO 39,110.0,Improved,2006,80 years 02 months,1280000.0,52 STRATHMORE AVE,141052,1.29331314480289,103.808253434532,2025-12-02
211387,2025-12,SEMBAWANG,4 ROOM,131B,CANBERRA CRES,04 TO 06,92.0,Model A,2020,93 years 10 months,770000.0,131B CANBERRA CRES,752131,1.4441465844546,103.830857595253,2025-12-02
211608,2025-12,SEMBAWANG,4 ROOM,107B,CANBERRA ST,07 TO 09,93.0,Model A,2018,91 years 08 months,650000.0,107B CANBERRA ST,752107,1.44916516333167,103.833497265983,2025-12-02
211682,2025-12,SEMBAWANG,4 ROOM,340A,SEMBAWANG CL,01 TO 03,95.0,Premium Apartment,2001,74 years 07 months,553000.0,340A SEMBAWANG CL,751340,1.44753390062501,103.81789234547,2025-12-02
212243,2025-12,SENGKANG,2 ROOM,457B,SENGKANG WEST RD,10 TO 12,48.0,2-room,2020,93 years 10 months,410000.0,457B SENGKANG WEST RD,792457,1.39242177196708,103.870777707872,2025-12-02
212291,2025-12,SENGKANG,3 ROOM,211B,COMPASSVALE LANE,04 TO 06,68.0,Model A,2013,86 years 03 months,526000.0,211B COMPASSVALE LANE,542211,1.38508719120599,103.898737047703,2025-12-02
212350,2025-12,SENGKANG,3 ROOM,471C,FERNVALE ST,16 TO 18,68.0,Model A,2016,89 years 11 months,542888.0,471C FERNVALE ST,793471,1.39595291069106,103.8815041411,2025-12-02
212903,2025-12,SENGKANG,4 ROOM,415B,FERNVALE LINK,10 TO 12,93.0,Model A,2016,89 years 02 months,685000.0,415B FERNVALE LINK,792415,1.38884403585275,103.880083476817,2025-12-02
213130,2025-12,SENGKANG,4 ROOM,107,RIVERVALE WALK,13 TO 15,103.0,Model A,1999,72 years 03 months,600000.0,107 RIVERVALE WALK,540107,1.38300501325196,103.900272453522,2025-12-02
213453,2025-12,SENGKANG,5 ROOM,287C,COMPASSVALE CRES,07 TO 09,113.0,Premium Apartment,2017,91 years,825000.0,287C COMPASSVALE CRES,543287,1.39873104620436,103.896699673287,2025-12-02
213473,2025-12,SENGKANG,5 ROOM,204B,COMPASSVALE DR,07 TO 09,110.0,Improved,2001,74 years 03 months,750000.0,204B COMPASSVALE DR,542204,1.38713574190991,103.894448611174,2025-12-02
213583,2025-12,SENGKANG,5 ROOM,405C,FERNVALE LANE,22 TO 24,112.0,Premium Apartment,2004,77 years 04 months,720888.0,405C FERNVALE LANE,793405,1.3891946666414,103.873437402619,2025-12-02
213746,2025-12,SENGKANG,5 ROOM,193,RIVERVALE DR,04 TO 06,111.0,Improved,2001,74 years 05 months,665000.0,193 RIVERVALE DR,540193,1.3932795324994,103.901941660487,2025-12-02
213903,2025-12,SENGKANG,EXECUTIVE,291C,COMPASSVALE ST,10 TO 12,125.0,Apartment,2001,74 years 07 months,820000.0,291C COMPASSVALE ST,543291,1.39632973880437,103.898595699451,2025-12-02
214157,2025-12,SERANGOON,4 ROOM,120,SERANGOON NTH AVE 1,10 TO 12,91.0,New Generation,1985,58 years 06 months,578000.0,120 SERANGOON NTH AVE 1,550120,1.36726629285153,103.871070695868,2025-12-02
214574,2025-12,TAMPINES,3 ROOM,492G,TAMPINES ST 45,10 TO 12,67.0,Model A,2018,92 years,565000.0,492G TAMPINES ST 45,527492,1.36424140790743,103.95508531832,2025-12-02
214707,2025-12,TAMPINES,4 ROOM,102,SIMEI ST 1,04 TO 06,104.0,Model A,1988,62 years,663000.0,102 SIMEI ST 1,520102,1.34134724976252,103.951355074928,2025-12-02
214837,2025-12,TAMPINES,4 ROOM,604A,TAMPINES AVE 9,13 TO 15,92.0,Model A,2020,93 years 03 months,780000.0,604A TAMPINES AVE 9,521604,1.36136735465848,103.935193332453,2025-12-02
215076,2025-12,TAMPINES,4 ROOM,163,TAMPINES ST 12,04 TO 06,107.0,Model A,1984,57 years 06 months,655000.0,163 TAMPINES ST 12,521163,1.34953223099799,103.947459140714,2025-12-02
215115,2025-12,TAMPINES,4 ROOM,237,TAMPINES ST 21,07 TO 09,104.0,Model A,1984,57 years 11 months,715000.0,237 TAMPINES ST 21,520237,1.35549051078672,103.947212194692,2025-12-02
215364,2025-12,TAMPINES,4 ROOM,721,TAMPINES ST 71,04 TO 06,99.0,Model A,1997,70 years 05 months,648000.0,721 TAMPINES ST 71,520721,1.3599202305003,103.936352048283,2025-12-02
215381,2025-12,TAMPINES,4 ROOM,888A,TAMPINES ST 81,01 TO 03,104.0,Model A,1989,62 years 03 months,650000.0,888A TAMPINES ST 81,521888,1.35048494954503,103.930912572366,2025-12-02
215429,2025-12,TAMPINES,4 ROOM,839,TAMPINES ST 83,04 TO 06,84.0,Simplified,1985,58 years 07 months,555000.0,839 TAMPINES ST 83,520839,1.35120565159908,103.934535695143,2025-12-02
215448,2025-12,TAMPINES,4 ROOM,871B,TAMPINES ST 86,13 TO 15,94.0,Model A,2017,90 years 03 months,772888.0,871B TAMPINES ST 86,522871,1.35651147306916,103.931956767677,2025-12-02
215715,2025-12,TAMPINES,5 ROOM,608A,TAMPINES NTH DR 1,07 TO 09,113.0,Improved,2020,94 years,880000.0,608A TAMPINES NTH DR 1,521608,1.36314791550448,103.93511840985,2025-12-02
215985,2025-12,TAMPINES,EXECUTIVE,156,TAMPINES ST 12,10 TO 12,148.0,Maisonette,1984,57 years 10 months,1038888.0,156 TAMPINES ST 12,521156,1.35162194359965,103.945090000876,2025-12-02
216038,2025-12,TAMPINES,EXECUTIVE,495C,TAMPINES ST 43,07 TO 09,147.0,Apartment,1994,67 years 02 months,938000.0,495C TAMPINES ST 43,522495,1.36323870680686,103.951624679385,2025-12-02
216067,2025-12,TAMPINES,EXECUTIVE,895,TAMPINES ST 81,04 TO 06,146.0,Maisonette,1988,61 years 10 months,880000.0,895 TAMPINES ST 81,520895,1.34778263902831,103.931593522645,2025-12-02
216072,2025-12,TAMPINES,EXECUTIVE,856C,TAMPINES ST 82,10 TO 12,145.0,Apartment,1995,69 years,1180000.0,856C TAMPINES ST 82,523856,1.35250510171565,103.937587507316,2025-12-02
216437,2025-12,TOA PAYOH,3 ROOM,177,TOA PAYOH CTRL,01 TO 03,67.0,Improved,1972,45 years 08 months,448888.0,177 TOA PAYOH CTRL,310177,1.33390034057387,103.848854818382,2025-12-02
216604,2025-12,TOA PAYOH,4 ROOM,101A,BIDADARI PK DR,13 TO 15,93.0,Model A,2021,94 years 07 months,1140000.0,101A BIDADARI PK DR,341101,1.33685462167621,103.870996313693,2025-12-02
217048,2025-12,TOA PAYOH,5 ROOM,216,LOR 8 TOA PAYOH,19 TO 21,114.0,Standard,1975,48 years 09 months,683000.0,216 LOR 8 TOA PAYOH,310216,1.3424720602594,103.854178690288,2025-12-02
217109,2025-12,WOODLANDS,2 ROOM,185B,WOODLANDS ST 13,04 TO 06,47.0,Model A,2019,92 years 11 months,380000.0,185B WOODLANDS ST 13,732185,1.43585650383199,103.776294109996,2025-12-02
217474,2025-12,WOODLANDS,4 ROOM,753,WOODLANDS CIRCLE,01 TO 03,102.0,Model A,1997,71 years 01 month,538000.0,753 WOODLANDS CIRCLE,730753,1.44580506026781,103.794640299567,2025-12-02
217781,2025-12,WOODLANDS,4 ROOM,694A,WOODLANDS DR 62,04 TO 06,92.0,Model A,2018,91 years 10 months,645000.0,694A WOODLANDS DR 62,731694,1.43905183955493,103.804395663183,2025-12-02
217826,2025-12,WOODLANDS,4 ROOM,684A,WOODLANDS DR 73,07 TO 09,103.0,Premium Apartment,2000,73 years 03 months,595000.0,684A WOODLANDS DR 73,731684,1.4411312628412,103.805148060847,2025-12-02
217895,2025-12,WOODLANDS,4 ROOM,667,WOODLANDS RING RD,04 TO 06,91.0,Model A,2001,74 years 02 months,553000.0,667 WOODLANDS RING RD,730667,1.43864551855524,103.79791843779,2025-12-02
218381,2025-12,WOODLANDS,5 ROOM,682C,WOODLANDS DR 73,10 TO 12,120.0,Premium Apartment,2000,73 years 03 months,675888.0,682C WOODLANDS DR 73,733682,1.44075549422421,103.804264107553,2025-12-02
218644,2025-12,WOODLANDS,EXECUTIVE,328,WOODLANDS ST 32,01 TO 03,163.0,Apartment,1994,67 years 05 months,950000.0,328 WOODLANDS ST 32,730328,1.43005749573809,103.779439838598,2025-12-02
218689,2025-12,WOODLANDS,EXECUTIVE,865,WOODLANDS ST 83,07 TO 09,146.0,Apartment,1996,69 years 04 months,865000.0,865 WOODLANDS ST 83,730865,1.44099129535005,103.792791376738,2025-12-02
219403,2025-12,YISHUN,4 ROOM,658,YISHUN AVE 4,04 TO 06,83.0,Simplified,1987,60 years 09 months,460000.0,658 YISHUN AVE 4,760658,1.42189632203512,103.839487406775,2025-12-02
219404,2025-12,YISHUN,4 ROOM,672C,YISHUN AVE 4,13 TO 15,93.0,Model A,2018,91 years 02 months,670000.0,672C YISHUN AVE 4,763672,1.41836093867258,103.842650670571,2025-12-02
219524,2025-12,YISHUN,4 ROOM,302,YISHUN CTRL,04 TO 06,108.0,Model A,1988,61 years 05 months,590000.0,302 YISHUN CTRL,760302,1.43003455434607,103.839674797958,2025-12-02
219655,2025-12,YISHUN,4 ROOM,116,YISHUN RING RD,04 TO 06,108.0,Model A,1983,56 years 08 months,508888.0,116 YISHUN RING RD,760116,1.43502750249052,103.82813490143,2025-12-02
219743,2025-12,YISHUN,4 ROOM,271,YISHUN ST 22,01 TO 03,104.0,Model A,1985,58 years 08 months,500000.0,271 YISHUN ST 22,760271,1.43778658440392,103.840374104621,2025-12-02
219800,2025-12,YISHUN,4 ROOM,479C,YISHUN ST 42,07 TO 09,93.0,Model A,2021,94 years 05 months,610000.0,479C YISHUN ST 42,763479,1.42942961091678,103.850096721246,2025-12-02
