_id,month,town,flat_type,block,street_name,storey_range,floor_area_sqm,flat_model,lease_commence_date,remaining_lease,resale_price,address,postal,latitude,longitude,_ts
197048,2025-04,ANG MO KIO,3 ROOM,444,ANG MO KIO AVE 10,01 TO 03,67.0,New Generation,1979,53 years 05 months,390000.0,444 ANG MO KIO AVE 10,560444,1.36660045321147,103.855578790668,2025-04-02
197082,2025-04,ANG MO KIO,3 ROOM,302,ANG MO KIO AVE 3,04 TO 06,73.0,New Generation,1978,52 years 01 month,490088.0,302 ANG MO KIO AVE 3,560302,1.36708983179046,103.845660199054,2025-04-02
197083,2025-04,ANG MO KIO,3 ROOM,570,ANG MO KIO AVE 3,07 TO 09,67.0,New Generation,1979,53 years 03 months,425000.0,570 ANG MO KIO AVE 3,560570,1.3697435855576,103.856023138277,2025-04-02
197104,2025-04,ANG MO KIO,3 ROOM,631,ANG MO KIO AVE 4,10 TO 12,67.0,New Generation,1985,58 years 11 months,468000.0,631 ANG MO KIO AVE 4,560631,1.3795572819161,103.840735651035,2025-04-02
197127,2025-04,ANG MO KIO,3 ROOM,533,ANG MO KIO AVE 5,10 TO 12,82.0,New Generation,1980,54 years,500000.0,533 ANG MO KIO AVE 5,560533,1.37416923724326,103.853001920124,2025-04-02
197141,2025-04,ANG MO KIO,3 ROOM,625,ANG MO KIO AVE 9,04 TO 06,68.0,New Generation,1980,54 years 07 months,380000.0,625 ANG MO KIO AVE 9,560625,1.38219867741921,103.841211533475,2025-04-02
197210,2025-04,ANG MO KIO,4 ROOM,354,ANG MO KIO ST 32,19 TO 21,90.0,Model A,2001,75 years 07 months,790000.0,354 ANG MO KIO ST 32,560354,1.3638775246776,103.85202861388,2025-04-02
197214,2025-04,ANG MO KIO,4 ROOM,455B,ANG MO KIO ST 44,28 TO 30,93.0,Model A,2018,92 years 01 month,980000.0,455B ANG MO KIO ST 44,562455,1.36833017912554,103.858495667837,2025-04-02
197232,2025-04,ANG MO KIO,5 ROOM,551,ANG MO KIO AVE 10,19 TO 21,118.0,Improved,1981,54 years 10 months,740000.0,551 ANG MO KIO AVE 10,560551,1.37392862005901,103.858665713793,2025-04-02
197242,2025-04,ANG MO KIO,5 ROOM,315B,ANG MO KIO ST 31,25 TO 27,110.0,Improved,2006,79 years 11 months,1025000.0,315B ANG MO KIO ST 31,563315,1.36402757273373,103.847478724527,2025-04-02
197448,2025-04,BEDOK,4 ROOM,722,BEDOK RESERVOIR RD,13 TO 15,111.0,Model A,1984,58 years 04 months,550000.0,722 BEDOK RESERVOIR RD,470722,1.33663699329345,103.928207774481,2025-04-02
197464,2025-04,BEDOK,4 ROOM,7,BEDOK STH AVE 2,04 TO 06,82.0,Improved,1976,49 years 10 months,475000.0,7 BEDOK STH AVE 2,460007,1.32281544267372,103.93545524391,2025-04-02
197588,2025-04,BISHAN,4 ROOM,234,BISHAN ST 22,10 TO 12,106.0,Model A,1992,66 years 02 months,920000.0,234 BISHAN ST 22,570234,1.35837057780719,103.846091355463,2025-04-02
197649,2025-04,BUKIT BATOK,2 ROOM,438C,BT BATOK WEST AVE 8,01 TO 03,38.0,Model A,2020,93 years 11 months,330000.0,438C BT BATOK WEST AVE 8,653438,1.35775731757846,103.739408616622,2025-04-02
197664,2025-04,BUKIT BATOK,3 ROOM,229,BT BATOK EAST AVE 3,04 TO 06,67.0,New Generation,1985,59 years 01 month,405000.0,229 BT BATOK EAST AVE 3,650229,1.34827660376884,103.754680867021,2025-04-02
197705,2025-04,BUKIT BATOK,3 ROOM,341,BT BATOK ST 34,10 TO 12,73.0,Model A,1986,60 years 01 month,450000.0,341 BT BATOK ST 34,650341,1.36280451951487,103.749157203985,2025-04-02
197848,2025-04,BUKIT BATOK,4 ROOM,453A,BT BATOK WEST AVE 6,19 TO 21,93.0,Model A,2019,93 years,678888.0,453A BT BATOK WEST AVE 6,651453,1.35227488305445,103.742253260513,2025-04-02
197997,2025-04,BUKIT MERAH,3 ROOM,110,BT PURMEI RD,10 TO 12,75.0,Model A,1984,58 years 06 months,520000.0,110 BT PURMEI RD,90110,1.27380415706758,103.827057699596,2025-04-02
198046,2025-04,BUKIT MERAH,3 ROOM,16,TAMAN HO SWEE,07 TO 09,54.0,Standard,1970,43 years 11 months,360000.0,16 TAMAN HO SWEE,163016,1.2880016960752,103.831614592325,2025-04-02
198056,2025-04,BUKIT MERAH,3 ROOM,5,TELOK BLANGAH CRES,16 TO 18,75.0,Improved,1983,57 years 03 months,464000.0,5 TELOK BLANGAH CRES,90005,1.27872402905423,103.819220384802,2025-04-02
198088,2025-04,BUKIT MERAH,4 ROOM,10A,BOON TIONG RD,16 TO 18,92.0,Model A,2016,89 years 11 months,1200000.0,10A BOON TIONG RD,160010,1.28635847107695,103.82962615571,2025-04-02
198115,2025-04,BUKIT MERAH,4 ROOM,105A,DEPOT RD,04 TO 06,92.0,Model A,2017,91 years 08 months,800000.0,105A DEPOT RD,101105,1.28107116546835,103.811405730352,2025-04-02
198159,2025-04,BUKIT MERAH,4 ROOM,43,LENGKOK BAHRU,01 TO 03,84.0,Simplified,1986,60 years 03 months,650000.0,43 LENGKOK BAHRU,150043,1.28695540244624,103.811000756246,2025-04-02
198246,2025-04,BUKIT PANJANG,3 ROOM,118,PENDING RD,01 TO 03,73.0,Model A,1988,62 years 02 months,412000.0,118 PENDING RD,670118,1.37680420349222,103.768463736662,2025-04-02
198280,2025-04,BUKIT PANJANG,4 ROOM,437,FAJAR RD,01 TO 03,100.0,Model A,1997,71 years 05 months,555000.0,437 FAJAR RD,670437,1.38250957258766,103.769548068869,2025-04-02
198357,2025-04,BUKIT PANJANG,4 ROOM,627,SENJA RD,04 TO 06,90.0,Premium Apartment,2004,78 years 08 months,555888.0,627 SENJA RD,670627,1.38553502172905,103.759378313644,2025-04-02
198358,2025-04,BUKIT PANJANG,4 ROOM,636B,SENJA RD,25 TO 27,92.0,Model A,2015,89 years 09 months,690000.0,636B SENJA RD,672636,1.38762470759976,103.758331445094,2025-04-02
198378,2025-04,BUKIT PANJANG,5 ROOM,504,JELAPANG RD,19 TO 21,123.0,Improved,1998,71 years 10 months,760000.0,504 JELAPANG RD,670504,1.3847322385941,103.766932853057,2025-04-02
198462,2025-04,CENTRAL AREA,3 ROOM,335A,SMITH ST,07 TO 09,60.0,Improved,1984,58 years,500000.0,335A SMITH ST,51335,1.28211630828089,103.842845624261,2025-04-02
198483,2025-04,CENTRAL AREA,4 ROOM,663,BUFFALO RD,16 TO 18,91.0,Improved,1982,56 years 02 months,585000.0,663 BUFFALO RD,210663,1.30568031708633,103.850857724971,2025-04-02
198502,2025-04,CHOA CHU KANG,2 ROOM,166B,TECK WHYE CRES,10 TO 12,47.0,2-room,2015,88 years 11 months,305000.0,166B TECK WHYE CRES,682166,1.38315989308266,103.753400918803,2025-04-02
198548,2025-04,CHOA CHU KANG,4 ROOM,455,CHOA CHU KANG AVE 4,16 TO 18,104.0,Premium Apartment,2000,74 years 02 months,555000.0,455 CHOA CHU KANG AVE 4,680455,1.37942324084484,103.735183712105,2025-04-02
198689,2025-04,CHOA CHU KANG,5 ROOM,223,CHOA CHU KANG CTRL,01 TO 03,122.0,Improved,1993,67 years 03 months,630000.0,223 CHOA CHU KANG CTRL,680223,1.38148413412097,103.744533459829,2025-04-02
198711,2025-04,CHOA CHU KANG,5 ROOM,567,CHOA CHU KANG ST 52,04 TO 06,129.0,Improved,1995,69 years 09 months,658000.0,567 CHOA CHU KANG ST 52,680567,1.39513213569157,103.745875286592,2025-04-02
198814,2025-04,CLEMENTI,3 ROOM,714,CLEMENTI WEST ST 2,04 TO 06,67.0,New Generation,1980,54 years 08 months,375000.0,714 CLEMENTI WEST ST 2,120714,1.30430341306691,103.761682084014,2025-04-02
199110,2025-04,HOUGANG,3 ROOM,24,HOUGANG AVE 3,13 TO 15,67.0,New Generation,1978,52 years 02 months,415000.0,24 HOUGANG AVE 3,530024,1.36551226123746,103.892085472745,2025-04-02
199114,2025-04,HOUGANG,3 ROOM,682,HOUGANG AVE 4,04 TO 06,64.0,Simplified,1989,63 years 05 months,440000.0,682 HOUGANG AVE 4,530682,1.37361830380888,103.885748856217,2025-04-02
199188,2025-04,HOUGANG,4 ROOM,988B,BUANGKOK GREEN,10 TO 12,93.0,Model A,2015,88 years 11 months,668000.0,988B BUANGKOK GREEN,532988,1.37989436347789,103.877406233754,2025-04-02
199245,2025-04,HOUGANG,4 ROOM,676,HOUGANG AVE 8,10 TO 12,104.0,Model A,1986,60 years 08 months,660000.0,676 HOUGANG AVE 8,530676,1.37153528573758,103.884223176926,2025-04-02
199253,2025-04,HOUGANG,4 ROOM,964,HOUGANG AVE 9,04 TO 06,100.0,Model A,1999,73 years 06 months,620000.0,964 HOUGANG AVE 9,530964,1.37715825014895,103.87752355745,2025-04-02
199279,2025-04,HOUGANG,4 ROOM,942,HOUGANG ST 92,01 TO 03,102.0,Model A,1998,72 years 07 months,555888.0,942 HOUGANG ST 92,530942,1.37328587053884,103.880413624286,2025-04-02
199299,2025-04,HOUGANG,4 ROOM,364B,UPP SERANGOON RD,04 TO 06,92.0,Model A,2018,92 years,798000.0,364B UPP SERANGOON RD,532364,1.37051434802161,103.897132658546,2025-04-02
199350,2025-04,HOUGANG,5 ROOM,921,HOUGANG ST 91,07 TO 09,120.0,Improved,1998,72 years 01 month,738000.0,921 HOUGANG ST 91,530921,1.37639888861394,103.884100743983,2025-04-02
199366,2025-04,HOUGANG,EXECUTIVE,430,HOUGANG AVE 6,04 TO 06,148.0,Maisonette,1989,63 years 01 month,1055000.0,430 HOUGANG AVE 6,530430,1.37532106170398,103.893261128732,2025-04-02
199551,2025-04,JURONG WEST,3 ROOM,211,BOON LAY PL,22 TO 24,65.0,Improved,1976,50 years 09 months,360000.0,211 BOON LAY PL,640211,1.34824122465841,103.7140978842,2025-04-02
199552,2025-04,JURONG WEST,3 ROOM,150A,CORPORATION DR,07 TO 09,68.0,Model A,2019,93 years 03 months,490000.0,150A CORPORATION DR,611150,1.32675346321679,103.722161196654,2025-04-02
199611,2025-04,JURONG WEST,3 ROOM,121,YUAN CHING RD,07 TO 09,61.0,Improved,1974,48 years 03 months,345000.0,121 YUAN CHING RD,610121,1.33570402533121,103.724078165253,2025-04-02
199668,2025-04,JURONG WEST,4 ROOM,514,JURONG WEST ST 52,07 TO 09,103.0,Model A,1984,58 years 02 months,586000.0,514 JURONG WEST ST 52,640514,1.34674845635984,103.720153220929,2025-04-02
199699,2025-04,JURONG WEST,4 ROOM,657B,JURONG WEST ST 65,13 TO 15,91.0,Model A,2001,75 years 04 months,580000.0,657B JURONG WEST ST 65,642657,1.33596098683449,103.700840300361,2025-04-02
199792,2025-04,JURONG WEST,5 ROOM,276C,JURONG WEST ST 25,10 TO 12,111.0,Improved,2002,76 years,560000.0,276C JURONG WEST ST 25,643276,1.35323553027461,103.704442590627,2025-04-02
199832,2025-04,JURONG WEST,5 ROOM,662C,JURONG WEST ST 64,10 TO 12,110.0,Improved,2001,75 years 06 months,703000.0,662C JURONG WEST ST 64,643662,1.33748082799852,103.704016273042,2025-04-02
200114,2025-04,KALLANG/WHAMPOA,5 ROOM,111,WHAMPOA RD,07 TO 09,123.0,Improved,1997,71 years 08 months,880000.0,111 WHAMPOA RD,321111,1.32658975917056,103.856187917486,2025-04-02
200180,2025-04,PASIR RIS,4 ROOM,440,PASIR RIS DR 4,01 TO 03,107.0,Model A,1989,63 years 03 months,608000.0,440 PASIR RIS DR 4,510440,1.36900809318444,103.958696603631,2025-04-02
200216,2025-04,PASIR RIS,5 ROOM,530D,PASIR RIS DR 1,01 TO 03,105.0,DBSS,2015,89 years 03 months,959138.0,530D PASIR RIS DR 1,514530,1.37187505519024,103.950580696055,2025-04-02
200327,2025-04,PUNGGOL,3 ROOM,663A,PUNGGOL DR,10 TO 12,65.0,Model A,2016,90 years 04 months,535000.0,663A PUNGGOL DR,821663,1.40024347553794,103.917080046799,2025-04-02
200333,2025-04,PUNGGOL,3 ROOM,208A,PUNGGOL PL,01 TO 03,67.0,Model A,2014,88 years 03 months,510500.0,208A PUNGGOL PL,821208,1.40146324574732,103.900761051711,2025-04-02
200354,2025-04,PUNGGOL,3 ROOM,224B,SUMANG LANE,10 TO 12,68.0,Model A,2018,92 years 09 months,525000.0,224B SUMANG LANE,822224,1.40182753843533,103.893372218499,2025-04-02
200495,2025-04,PUNGGOL,4 ROOM,273D,PUNGGOL PL,07 TO 09,93.0,Premium Apartment,2013,87 years 04 months,770000.0,273D PUNGGOL PL,824273,1.40252318209096,103.901295922358,2025-04-02
200517,2025-04,PUNGGOL,4 ROOM,310A,PUNGGOL WALK,07 TO 09,92.0,Premium Apartment,2016,90 years 04 months,700000.0,310A PUNGGOL WALK,821310,1.40870088870466,103.901326604714,2025-04-02
200525,2025-04,PUNGGOL,4 ROOM,260C,PUNGGOL WAY,01 TO 03,93.0,Model A,2016,90 years 04 months,620000.0,260C PUNGGOL WAY,823260,1.40524575016039,103.896410927147,2025-04-02
200572,2025-04,PUNGGOL,5 ROOM,105A,EDGEFIELD PLAINS,04 TO 06,110.0,Improved,2003,77 years 03 months,644000.0,105A EDGEFIELD PLAINS,821105,1.3969413315622,103.905729497383,2025-04-02
200573,2025-04,PUNGGOL,5 ROOM,107B,EDGEFIELD PLAINS,01 TO 03,110.0,Improved,2003,77 years 01 month,618000.0,107B EDGEFIELD PLAINS,822107,1.39683723523598,103.907248151565,2025-04-02
200626,2025-04,PUNGGOL,5 ROOM,310A,PUNGGOL WALK,04 TO 06,112.0,Premium Apartment,2016,90 years 03 months,838000.0,310A PUNGGOL WALK,821310,1.40870088870466,103.901326604714,2025-04-02
200698,2025-04,QUEENSTOWN,3 ROOM,5,GHIM MOH RD,04 TO 06,65.0,Improved,1976,50 years 04 months,450000.0,5 GHIM MOH RD,270005,1.31269310627626,103.788308828224,2025-04-02
200731,2025-04,QUEENSTOWN,3 ROOM,171,STIRLING RD,13 TO 15,70.0,Improved,1970,44 years 05 months,455000.0,171 STIRLING RD,140171,1.29073246202285,103.803846934678,2025-04-02
200781,2025-04,QUEENSTOWN,4 ROOM,18C,HOLLAND DR,31 TO 33,92.0,Model A,2012,86 years 06 months,1001000.0,18C HOLLAND DR,274018,1.31031629242811,103.791738859624,2025-04-02
200798,2025-04,QUEENSTOWN,4 ROOM,60,STRATHMORE AVE,25 TO 27,96.0,Model A,2000,74 years 08 months,1000000.0,60 STRATHMORE AVE,141060,1.29308587206923,103.81188488444,2025-04-02
200852,2025-04,SEMBAWANG,2 ROOM,101B,CANBERRA ST,13 TO 15,38.0,2-room,2020,94 years 09 months,360000.0,101B CANBERRA ST,752101,1.45166310353079,103.831174909166,2025-04-02
201041,2025-04,SEMBAWANG,4 ROOM,362C,SEMBAWANG CRES,13 TO 15,93.0,Model A,2019,93 years 02 months,658000.0,362C SEMBAWANG CRES,753362,1.44668372388674,103.813225771052,2025-04-02
201074,2025-04,SEMBAWANG,5 ROOM,483,ADMIRALTY LINK,01 TO 03,110.0,Improved,2004,78 years 03 months,560000.0,483 ADMIRALTY LINK,750483,1.45603699736223,103.815580869079,2025-04-02
201082,2025-04,SEMBAWANG,5 ROOM,503B,CANBERRA LINK,01 TO 03,110.0,Improved,2001,75 years 06 months,585000.0,503B CANBERRA LINK,752503,1.45038042756867,103.822061849106,2025-04-02
201122,2025-04,SEMBAWANG,5 ROOM,108B,CANBERRA WALK,07 TO 09,113.0,Improved,2018,92 years 03 months,785000.0,108B CANBERRA WALK,752108,1.44818951673352,103.831856910403,2025-04-02
201177,2025-04,SENGKANG,2 ROOM,351B,ANCHORVALE RD,01 TO 03,47.0,Model A,2019,93 years 03 months,345000.0,351B ANCHORVALE RD,542351,1.39408455300522,103.88693871388,2025-04-02
201238,2025-04,SENGKANG,3 ROOM,457B,SENGKANG WEST RD,04 TO 06,68.0,Model A,2020,94 years 07 months,506888.0,457B SENGKANG WEST RD,792457,1.39242177196708,103.870777707872,2025-04-02
201275,2025-04,SENGKANG,4 ROOM,356A,ANCHORVALE LANE,13 TO 15,93.0,Model A,2021,95 years,690888.0,356A ANCHORVALE LANE,541356,1.39343577522561,103.884811967949,2025-04-02
201320,2025-04,SENGKANG,4 ROOM,293B,COMPASSVALE CRES,04 TO 06,93.0,Model A,2016,90 years 08 months,620000.0,293B COMPASSVALE CRES,542293,1.39699193578499,103.895995258683,2025-04-02
201439,2025-04,SENGKANG,4 ROOM,178B,RIVERVALE CRES,16 TO 18,93.0,Model A,2015,89 years 01 month,669000.0,178B RIVERVALE CRES,542178,1.38854689304718,103.910034044279,2025-04-02
201500,2025-04,SENGKANG,5 ROOM,301C,ANCHORVALE DR,13 TO 15,111.0,Improved,2001,75 years 07 months,700000.0,301C ANCHORVALE DR,543301,1.3885182028847,103.891082520107,2025-04-02
201507,2025-04,SENGKANG,5 ROOM,356A,ANCHORVALE LANE,13 TO 15,113.0,Improved,2021,94 years 11 months,865000.0,356A ANCHORVALE LANE,541356,1.39343577522561,103.884811967949,2025-04-02
201562,2025-04,SENGKANG,5 ROOM,223C,COMPASSVALE WALK,04 TO 06,121.0,Improved,1999,73 years 01 month,707000.0,223C COMPASSVALE WALK,543223,1.38871268226762,103.89775620823,2025-04-02
201723,2025-04,SERANGOON,4 ROOM,202,SERANGOON CTRL,04 TO 06,84.0,Simplified,1985,59 years 09 months,720000.0,202 SERANGOON CTRL,550202,1.35160097991024,103.873747774097,2025-04-02
201750,2025-04,SERANGOON,5 ROOM,108,SERANGOON NTH AVE 1,10 TO 12,139.0,Adjoined flat,1985,58 years 11 months,828000.0,108 SERANGOON NTH AVE 1,550108,1.36990140336943,103.87120683593,2025-04-02
202004,2025-04,TAMPINES,4 ROOM,609C,TAMPINES NTH DR 1,10 TO 12,93.0,Model A,2020,94 years 08 months,750888.0,609C TAMPINES NTH DR 1,523609,1.3636897807061,103.936514982808,2025-04-02
202005,2025-04,TAMPINES,4 ROOM,612B,TAMPINES NTH DR 1,07 TO 09,93.0,Model A,2020,94 years 07 months,748888.0,612B TAMPINES NTH DR 1,522612,1.36536043524759,103.935789815182,2025-04-02
202056,2025-04,TAMPINES,4 ROOM,443,TAMPINES ST 43,04 TO 06,103.0,Model A,1985,59 years 09 months,608000.0,443 TAMPINES ST 43,520443,1.35883952253242,103.951899349516,2025-04-02
202183,2025-04,TAMPINES,5 ROOM,609A,TAMPINES NTH DR 1,07 TO 09,113.0,Improved,2020,94 years 08 months,895000.0,609A TAMPINES NTH DR 1,521609,1.36361412499017,103.935357759734,2025-04-02
202212,2025-04,TAMPINES,5 ROOM,401,TAMPINES ST 41,10 TO 12,123.0,Improved,1985,59 years 06 months,830000.0,401 TAMPINES ST 41,520401,1.3570728680964,103.944912676662,2025-04-02
202393,2025-04,TOA PAYOH,4 ROOM,118A,ALKAFF CRES,04 TO 06,93.0,Model A,2020,94 years 09 months,1100000.0,118A ALKAFF CRES,341118,1.33649028446747,103.873777299654,2025-04-02
202394,2025-04,TOA PAYOH,4 ROOM,118A,ALKAFF CRES,04 TO 06,97.0,Model A,2020,94 years 09 months,1200000.0,118A ALKAFF CRES,341118,1.33649028446747,103.873777299654,2025-04-02
202465,2025-04,TOA PAYOH,4 ROOM,79E,TOA PAYOH CTRL,19 TO 21,91.0,Model A,2009,83 years 02 months,1010000.0,79E TOA PAYOH CTRL,315079,1.33472713626235,103.849822984337,2025-04-02
202491,2025-04,TOA PAYOH,5 ROOM,250,KIM KEAT LINK,07 TO 09,121.0,Improved,1989,62 years 11 months,798000.0,250 KIM KEAT LINK,310250,1.33199426583747,103.856650727575,2025-04-02
202572,2025-04,WOODLANDS,3 ROOM,780C,WOODLANDS CRES,04 TO 06,67.0,Model A,2015,89 years 04 months,480000.0,780C WOODLANDS CRES,733780,1.44911111477951,103.801346682135,2025-04-02
202573,2025-04,WOODLANDS,3 ROOM,782D,WOODLANDS CRES,10 TO 12,67.0,Model A,2015,89 years 03 months,490000.0,782D WOODLANDS CRES,734782,1.44817394200904,103.803035445933,2025-04-02
202612,2025-04,WOODLANDS,4 ROOM,7,MARSILING DR,04 TO 06,90.0,Improved,1976,49 years 10 months,415000.0,7 MARSILING DR,730007,1.44166906487399,103.776733408183,2025-04-02
202620,2025-04,WOODLANDS,4 ROOM,309,WOODLANDS AVE 1,01 TO 03,89.0,Simplified,1989,63 years 06 months,485000.0,309 WOODLANDS AVE 1,730309,1.42974761626252,103.776015339553,2025-04-02
202628,2025-04,WOODLANDS,4 ROOM,846,WOODLANDS AVE 4,04 TO 06,106.0,Model A,1996,70 years 05 months,575000.0,846 WOODLANDS AVE 4,730846,1.44342673813206,103.793612835968,2025-04-02
202738,2025-04,WOODLANDS,4 ROOM,717B,WOODLANDS DR 70,07 TO 09,88.0,Model A,2017,91 years 09 months,650000.0,717B WOODLANDS DR 70,732717,1.44137023315005,103.798542723674,2025-04-02
202828,2025-04,WOODLANDS,5 ROOM,790,WOODLANDS AVE 6,01 TO 03,121.0,Improved,1997,71 years 07 months,610000.0,790 WOODLANDS AVE 6,730790,1.44279664682069,103.802857264188,2025-04-02
202881,2025-04,WOODLANDS,5 ROOM,890A,WOODLANDS DR 50,04 TO 06,113.0,Improved,2017,91 years 04 months,741000.0,890A WOODLANDS DR 50,731890,1.43828221158378,103.793216471148,2025-04-02
202999,2025-04,YISHUN,2 ROOM,469A,YISHUN ST 43,04 TO 06,47.0,2-room,2019,93 years 09 months,340000.0,469A YISHUN ST 43,761469,1.42469407414992,103.852385726656,2025-04-02
203019,2025-04,YISHUN,3 ROOM,671A,YISHUN AVE 4,07 TO 09,68.0,Model A,2018,91 years 11 months,520000.0,671A YISHUN AVE 4,761671,1.41897568011422,103.842333395726,2025-04-02
203020,2025-04,YISHUN,3 ROOM,672B,YISHUN AVE 4,01 TO 03,68.0,Model A,2018,91 years 11 months,472000.0,672B YISHUN AVE 4,762672,1.41859080728129,103.841823925238,2025-04-02
203258,2025-04,YISHUN,4 ROOM,327,YISHUN RING RD,01 TO 03,84.0,Simplified,1988,62 years 03 months,465000.0,327 YISHUN RING RD,760327,1.43007109914643,103.842396446526,2025-04-02
203262,2025-04,YISHUN,4 ROOM,125,YISHUN ST 11,04 TO 06,91.0,New Generation,1984,58 years 10 months,500000.0,125 YISHUN ST 11,760125,1.4339506942268,103.830439843368,2025-04-02
203332,2025-04,YISHUN,4 ROOM,879,YISHUN ST 81,01 TO 03,104.0,Model A,1987,61 years 08 months,585000.0,879 YISHUN ST 81,760879,1.41444167860568,103.83611779226,2025-04-02
197083,2025-04,ANG MO KIO,3 ROOM,127,ANG MO KIO AVE 3,04 TO 06,67.0,New Generation,1978,52 years 06 months,400000.0,127 ANG MO KIO AVE 3,560127,1.37122322102767,103.843593321222,2025-04-02
197233,2025-04,ANG MO KIO,5 ROOM,553,ANG MO KIO AVE 10,04 TO 06,119.0,Improved,1980,54 years 06 months,680000.0,553 ANG MO KIO AVE 10,560553,1.37260157854458,103.857234141592,2025-04-02
197362,2025-04,BEDOK,3 ROOM,39,BEDOK STH RD,13 TO 15,82.0,New Generation,1978,52 years 06 months,478000.0,39 BEDOK STH RD,460039,1.32139766306096,103.93973036061,2025-04-02
197499,2025-04,BEDOK,5 ROOM,139,BEDOK NTH AVE 3,01 TO 03,117.0,Standard,1979,52 years 11 months,675000.0,139 BEDOK NTH AVE 3,460139,1.32941001130625,103.935397269548,2025-04-02
197501,2025-04,BEDOK,5 ROOM,98,BEDOK NTH AVE 4,22 TO 24,123.0,Standard,1978,52 years 09 months,748000.0,98 BEDOK NTH AVE 4,460098,1.3342332740943,103.93984305789,2025-04-02
197535,2025-04,BEDOK,5 ROOM,34,CHAI CHEE AVE,07 TO 09,119.0,Standard,1975,48 years 11 months,740000.0,34 CHAI CHEE AVE,461034,1.32416996959775,103.926405179845,2025-04-02
197564,2025-04,BISHAN,3 ROOM,110,BISHAN ST 12,04 TO 06,64.0,Simplified,1986,59 years 11 months,548000.0,110 BISHAN ST 12,570110,1.34740957043624,103.848054589423,2025-04-02
197819,2025-04,BUKIT BATOK,4 ROOM,417,BT BATOK WEST AVE 4,10 TO 12,103.0,Model A,1986,60 years 03 months,580000.0,417 BT BATOK WEST AVE 4,650417,1.3628909909218,103.746539240126,2025-04-02
197887,2025-04,BUKIT BATOK,4 ROOM,438A,BT BATOK WEST AVE 8,07 TO 09,93.0,Model A,2020,93 years 11 months,690000.0,438A BT BATOK WEST AVE 8,651438,1.3574856237206,103.740845096872,2025-04-02
197888,2025-04,BUKIT BATOK,4 ROOM,441B,BT BATOK WEST AVE 8,07 TO 09,92.0,Model A,2019,93 years,680000.0,441B BT BATOK WEST AVE 8,652441,1.35600327228239,103.738549101393,2025-04-02
197901,2025-04,BUKIT BATOK,4 ROOM,449A,BT BATOK WEST AVE 9,07 TO 09,93.0,Model A,2019,93 years,675000.0,449A BT BATOK WEST AVE 9,651449,1.35234861922854,103.74151018118,2025-04-02
197923,2025-04,BUKIT BATOK,5 ROOM,463B,BT BATOK ST 41,10 TO 12,113.0,Improved,2021,95 years 04 months,840000.0,463B BT BATOK ST 41,652463,1.35704936773958,103.742307951488,2025-04-02
197938,2025-04,BUKIT BATOK,5 ROOM,394,BT BATOK WEST AVE 5,13 TO 15,115.0,Improved,2004,78 years 07 months,755000.0,394 BT BATOK WEST AVE 5,650394,1.36642311199961,103.752688625262,2025-04-02
197947,2025-04,BUKIT BATOK,5 ROOM,111,BT BATOK WEST AVE 6,10 TO 12,132.0,Model A,1985,59 years,775000.0,111 BT BATOK WEST AVE 6,650111,1.34840644346954,103.745994934101,2025-04-02
198130,2025-04,BUKIT MERAH,4 ROOM,110A,DEPOT RD,04 TO 06,92.0,Model A,2017,91 years 08 months,795000.0,110A DEPOT RD,101110,1.28142824815036,103.809242812919,2025-04-02
198161,2025-04,BUKIT MERAH,4 ROOM,118D,JLN MEMBINA,16 TO 18,92.0,Model A,2003,76 years 10 months,900000.0,118D JLN MEMBINA,164118,1.2826810505173,103.826583442179,2025-04-02
198216,2025-04,BUKIT MERAH,5 ROOM,18,CANTONMENT CL,04 TO 06,110.0,Improved,2002,76 years 10 months,1070000.0,18 CANTONMENT CL,80018,1.27390144581321,103.839417299226,2025-04-02
198307,2025-04,BUKIT PANJANG,4 ROOM,173,GANGSA RD,04 TO 06,101.0,Model A,1997,71 years 09 months,628000.0,173 GANGSA RD,670173,1.37992941455809,103.766762151697,2025-04-02
198377,2025-04,BUKIT PANJANG,4 ROOM,633A,SENJA RD,19 TO 21,93.0,Model A,2013,87 years 09 months,682000.0,633A SENJA RD,671633,1.38558640738414,103.758340839001,2025-04-02
198408,2025-04,BUKIT PANJANG,5 ROOM,204,PETIR RD,01 TO 03,122.0,Improved,1988,62 years 07 months,595000.0,204 PETIR RD,670204,1.37317516532605,103.774810614456,2025-04-02
198487,2025-04,CENTRAL AREA,3 ROOM,4,TG PAGAR PLAZA,16 TO 18,59.0,Improved,1977,50 years 11 months,550000.0,4 TG PAGAR PLAZA,81004,1.27590520131404,103.842741240941,2025-04-02
198496,2025-04,CENTRAL AREA,3 ROOM,34,UPP CROSS ST,13 TO 15,65.0,Improved,1975,49 years 04 months,475000.0,34 UPP CROSS ST,50034,1.2862352148315,103.842303340846,2025-04-02
198526,2025-04,CHOA CHU KANG,3 ROOM,809B,CHOA CHU KANG AVE 1,13 TO 15,67.0,Model A,2017,91 years 01 month,508000.0,809B CHOA CHU KANG AVE 1,682809,1.37476188616122,103.744965122728,2025-04-02
198537,2025-04,CHOA CHU KANG,3 ROOM,26,TECK WHYE LANE,01 TO 03,74.0,New Generation,1979,53 years 01 month,395000.0,26 TECK WHYE LANE,680026,1.37762112372223,103.755740001262,2025-04-02
198546,2025-04,CHOA CHU KANG,4 ROOM,296E,CHOA CHU KANG AVE 2,01 TO 03,102.0,Premium Apartment,1999,73 years 04 months,500000.0,296E CHOA CHU KANG AVE 2,685296,1.37691701980975,103.743047128967,2025-04-02
198559,2025-04,CHOA CHU KANG,4 ROOM,280,CHOA CHU KANG AVE 3,10 TO 12,104.0,Model A,1992,66 years 05 months,563000.0,280 CHOA CHU KANG AVE 3,680280,1.3808318992022,103.74293968344,2025-04-02
198593,2025-04,CHOA CHU KANG,4 ROOM,815B,CHOA CHU KANG AVE 7,07 TO 09,93.0,Model A,2017,91 years 01 month,640000.0,815B CHOA CHU KANG AVE 7,682815,1.37684626113984,103.747376759116,2025-04-02
198712,2025-04,CHOA CHU KANG,5 ROOM,691A,CHOA CHU KANG CRES,13 TO 15,110.0,Improved,2003,77 years 02 months,570000.0,691A CHOA CHU KANG CRES,681691,1.40115779753494,103.751471709468,2025-04-02
198876,2025-04,CLEMENTI,4 ROOM,461,CLEMENTI AVE 3,07 TO 09,90.0,Model A,2006,80 years 08 months,860000.0,461 CLEMENTI AVE 3,120461,1.31109915509699,103.766399536327,2025-04-02
198984,2025-04,GEYLANG,3 ROOM,61,CIRCUIT RD,01 TO 03,61.0,Standard,1969,42 years 10 months,336000.0,61 CIRCUIT RD,370061,1.32573742833728,103.887054329523,2025-04-02
199154,2025-04,HOUGANG,3 ROOM,311,HOUGANG AVE 5,10 TO 12,83.0,New Generation,1983,57 years 02 months,475000.0,311 HOUGANG AVE 5,530311,1.36566733064792,103.894853675162,2025-04-02
199255,2025-04,HOUGANG,4 ROOM,341,HOUGANG AVE 7,10 TO 12,93.0,New Generation,1985,59 years 05 months,585000.0,341 HOUGANG AVE 7,530341,1.37044549024151,103.898588733978,2025-04-02
199447,2025-04,JURONG EAST,3 ROOM,306,JURONG EAST ST 32,01 TO 03,70.0,New Generation,1983,57 years 06 months,390000.0,306 JURONG EAST ST 32,600306,1.34607046577403,103.735252691468,2025-04-02
199522,2025-04,JURONG EAST,5 ROOM,265,TOH GUAN RD,10 TO 12,121.0,Improved,1998,72 years 07 months,800000.0,265 TOH GUAN RD,600265,1.34070811731138,103.744702329438,2025-04-02
199989,2025-04,KALLANG/WHAMPOA,3 ROOM,59,JLN MA'MOR,01 TO 03,79.4,Terrace,1972,46 years 04 months,950000.0,59 JLN MA'MOR,320059,1.32810958408436,103.857125685289,2025-04-02
199993,2025-04,KALLANG/WHAMPOA,3 ROOM,116A,JLN TENTERAM,04 TO 06,67.0,Model A,2017,91 years 08 months,550000.0,116A JLN TENTERAM,321116,1.3270531250321,103.860558381575,2025-04-02
200103,2025-04,KALLANG/WHAMPOA,4 ROOM,26B,ST. GEORGE'S LANE,10 TO 12,92.0,Model A,2020,94 years 02 months,1050000.0,26B ST. GEORGE'S LANE,322026,1.32166862124903,103.862717909816,2025-04-02
200104,2025-04,KALLANG/WHAMPOA,4 ROOM,26B,ST. GEORGE'S LANE,19 TO 21,92.0,Model A,2020,94 years 02 months,1138000.0,26B ST. GEORGE'S LANE,322026,1.32166862124903,103.862717909816,2025-04-02
200124,2025-04,KALLANG/WHAMPOA,4 ROOM,2B,UPP BOON KENG RD,28 TO 30,90.0,Model A,2006,80 years 07 months,990000.0,2B UPP BOON KENG RD,382002,1.31361422747897,103.871604373826,2025-04-02
200176,2025-04,MARINE PARADE,3 ROOM,4,MARINE TER,07 TO 09,65.0,Improved,1975,48 years 10 months,490000.0,4 MARINE TER,440004,1.30509642100259,103.917733747552,2025-04-02
200200,2025-04,MARINE PARADE,5 ROOM,8,MARINE TER,01 TO 03,130.0,Adjoined flat,1975,48 years 11 months,910000.0,8 MARINE TER,440008,1.30436465592228,103.916108628733,2025-04-02
200201,2025-04,MARINE PARADE,5 ROOM,14,MARINE TER,13 TO 15,117.0,Standard,1975,48 years 11 months,955000.0,14 MARINE TER,440014,1.30347617922703,103.915411740341,2025-04-02
200351,2025-04,PUNGGOL,2 ROOM,210C,PUNGGOL PL,16 TO 18,46.0,Model A,2014,88 years 10 months,387000.0,210C PUNGGOL PL,823210,1.39965440414761,103.899915641085,2025-04-02
200428,2025-04,PUNGGOL,4 ROOM,662A,EDGEDALE PLAINS,19 TO 21,92.0,Premium Apartment,2017,91 years 02 months,680000.0,662A EDGEDALE PLAINS,821662,1.4020044862654,103.918326393281,2025-04-02
200457,2025-04,PUNGGOL,4 ROOM,622B,PUNGGOL CTRL,07 TO 09,94.0,Model A,2014,88 years 02 months,645000.0,622B PUNGGOL CTRL,822622,1.40034369782027,103.91054120733,2025-04-02
200579,2025-04,PUNGGOL,4 ROOM,232C,SUMANG LANE,07 TO 09,93.0,Model A,2018,92 years 08 months,646888.0,232C SUMANG LANE,823232,1.40203576124081,103.890116621791,2025-04-02
200609,2025-04,PUNGGOL,5 ROOM,126A,EDGEDALE PLAINS,07 TO 09,110.0,Improved,2003,77 years 01 month,665000.0,126A EDGEDALE PLAINS,821126,1.39410054969153,103.911356165393,2025-04-02
200620,2025-04,PUNGGOL,5 ROOM,107A,EDGEFIELD PLAINS,16 TO 18,110.0,Improved,2003,77 years,666000.0,107A EDGEFIELD PLAINS,821107,1.39719879396476,103.906825785664,2025-04-02
200621,2025-04,PUNGGOL,5 ROOM,107D,EDGEFIELD PLAINS,10 TO 12,110.0,Improved,2003,77 years 01 month,600000.0,107D EDGEFIELD PLAINS,824107,1.39623803491797,103.908007315128,2025-04-02
200640,2025-04,PUNGGOL,5 ROOM,658B,PUNGGOL EAST,04 TO 06,113.0,Improved,2018,92 years 08 months,758800.0,658B PUNGGOL EAST,822658,1.40021371053357,103.919048765929,2025-04-02
200641,2025-04,PUNGGOL,5 ROOM,658C,PUNGGOL EAST,07 TO 09,113.0,Improved,2018,92 years 09 months,838000.0,658C PUNGGOL EAST,823658,1.40054860434992,103.918647557106,2025-04-02
200699,2025-04,PUNGGOL,5 ROOM,323A,SUMANG WALK,04 TO 06,113.0,Premium Apartment,2020,93 years 11 months,825000.0,323A SUMANG WALK,821323,1.41239137117199,103.898233670211,2025-04-02
200723,2025-04,QUEENSTOWN,3 ROOM,100,C'WEALTH CRES,07 TO 09,68.0,Standard,1970,44 years 04 months,400000.0,100 C'WEALTH CRES,140100,1.30770527644458,103.801272476263,2025-04-02
200840,2025-04,QUEENSTOWN,4 ROOM,183,STIRLING RD,01 TO 03,95.0,Model A,2000,74 years 08 months,868000.0,183 STIRLING RD,140183,1.29568740644003,103.80486231318,2025-04-02
201061,2025-04,SEMBAWANG,4 ROOM,102A,CANBERRA ST,04 TO 06,93.0,Model A,2020,94 years 09 months,600000.0,102A CANBERRA ST,751102,1.45119390519494,103.832227554636,2025-04-02
201096,2025-04,SEMBAWANG,4 ROOM,362B,SEMBAWANG CRES,04 TO 06,93.0,Model A,2019,93 years 02 months,615000.0,362B SEMBAWANG CRES,752362,1.4465925712422,103.813540833248,2025-04-02
201097,2025-04,SEMBAWANG,4 ROOM,362B,SEMBAWANG CRES,07 TO 09,93.0,Model A,2019,93 years 02 months,630000.0,362B SEMBAWANG CRES,752362,1.4465925712422,103.813540833248,2025-04-02
201124,2025-04,SEMBAWANG,5 ROOM,467B,ADMIRALTY DR,04 TO 06,118.0,Premium Apartment,2001,75 years 04 months,610000.0,467B ADMIRALTY DR,752467,1.45114148417526,103.813629843094,2025-04-02
201133,2025-04,SEMBAWANG,5 ROOM,402,ADMIRALTY LINK,04 TO 06,110.0,Improved,2001,75 years 02 months,588000.0,402 ADMIRALTY LINK,750402,1.45389053873224,103.815769086937,2025-04-02
201177,2025-04,SEMBAWANG,5 ROOM,101A,CANBERRA ST,10 TO 12,116.0,Improved,2020,94 years 09 months,830000.0,101A CANBERRA ST,751101,1.45173892803325,103.83045410628,2025-04-02
201178,2025-04,SEMBAWANG,5 ROOM,102A,CANBERRA ST,01 TO 03,116.0,Improved,2020,94 years 09 months,745000.0,102A CANBERRA ST,751102,1.45119390519494,103.832227554636,2025-04-02
201179,2025-04,SEMBAWANG,5 ROOM,102A,CANBERRA ST,04 TO 06,116.0,Improved,2020,94 years 09 months,765000.0,102A CANBERRA ST,751102,1.45119390519494,103.832227554636,2025-04-02
201338,2025-04,SENGKANG,4 ROOM,356B,ANCHORVALE LANE,10 TO 12,93.0,Model A,2021,94 years 11 months,728000.0,356B ANCHORVALE LANE,542356,1.39390663331416,103.884506817902,2025-04-02
201355,2025-04,SENGKANG,4 ROOM,317C,ANCHORVALE RD,10 TO 12,92.0,Premium Apartment,2003,77 years,590000.0,317C ANCHORVALE RD,543317,1.39345998492639,103.888223477645,2025-04-02
201421,2025-04,SENGKANG,4 ROOM,273B,COMPASSVALE LINK,07 TO 09,90.0,Premium Apartment,2009,83 years 05 months,815000.0,273B COMPASSVALE LINK,542273,1.3845437429841,103.895001773759,2025-04-02
201505,2025-04,SENGKANG,4 ROOM,158C,RIVERVALE CRES,16 TO 18,90.0,Premium Apartment,2003,77 years 06 months,585000.0,158C RIVERVALE CRES,543158,1.38818825958938,103.907145829717,2025-04-02
201590,2025-04,SENGKANG,5 ROOM,317B,ANCHORVALE RD,04 TO 06,110.0,Premium Apartment,2003,77 years 03 months,652000.0,317B ANCHORVALE RD,542317,1.39386232204759,103.888540263546,2025-04-02
201678,2025-04,SENGKANG,5 ROOM,144,RIVERVALE DR,07 TO 09,122.0,Improved,1999,73 years 09 months,656000.0,144 RIVERVALE DR,540144,1.3891697231591,103.905930313783,2025-04-02
201735,2025-04,SENGKANG,EXECUTIVE,143,RIVERVALE DR,16 TO 18,140.0,Apartment,1999,73 years 10 months,880000.0,143 RIVERVALE DR,540143,1.39006592833714,103.905723427087,2025-04-02
201808,2025-04,SERANGOON,5 ROOM,426,SERANGOON AVE 1,13 TO 15,121.0,Improved,1988,62 years 09 months,990000.0,426 SERANGOON AVE 1,550426,1.34779505728772,103.876022094599,2025-04-02
201861,2025-04,TAMPINES,3 ROOM,520A,TAMPINES CTRL 8,13 TO 15,62.0,DBSS,2014,88 years 03 months,680000.0,520A TAMPINES CTRL 8,521520,1.35701024664546,103.939911246503,2025-04-02
201879,2025-04,TAMPINES,3 ROOM,613A,TAMPINES NTH DR 1,10 TO 12,69.0,Model A,2020,94 years 07 months,625000.0,613A TAMPINES NTH DR 1,521613,1.3657934916842,103.935322892026,2025-04-02
201898,2025-04,TAMPINES,3 ROOM,204,TAMPINES ST 21,07 TO 09,60.0,Improved,1983,57 years 10 months,388000.0,204 TAMPINES ST 21,520204,1.35217984684253,103.951695356215,2025-04-02
202003,2025-04,TAMPINES,4 ROOM,519A,TAMPINES CTRL 8,13 TO 15,83.0,DBSS,2014,88 years 03 months,862000.0,519A TAMPINES CTRL 8,521519,1.35727594461393,103.940381600354,2025-04-02
202125,2025-04,TAMPINES,4 ROOM,414,TAMPINES ST 41,04 TO 06,84.0,Simplified,1987,61 years 03 months,300000.0,414 TAMPINES ST 41,520414,1.35981195619451,103.946549508112,2025-04-02
202184,2025-04,TAMPINES,5 ROOM,168B,SIMEI LANE,10 TO 12,107.0,DBSS,2011,84 years 11 months,968000.0,168B SIMEI LANE,522168,1.34261198398468,103.958768059936,2025-04-02
202260,2025-04,TAMPINES,5 ROOM,608B,TAMPINES NTH DR 1,07 TO 09,113.0,Improved,2020,94 years 07 months,872000.0,608B TAMPINES NTH DR 1,522608,1.36312572875358,103.935956103971,2025-04-02
202261,2025-04,TAMPINES,5 ROOM,612A,TAMPINES NTH DR 1,07 TO 09,113.0,Improved,2020,94 years 07 months,900000.0,612A TAMPINES NTH DR 1,521612,1.36528634266006,103.935196033623,2025-04-02
202455,2025-04,TOA PAYOH,3 ROOM,25,TOA PAYOH EAST,01 TO 03,67.0,Improved,1971,44 years 11 months,360000.0,25 TOA PAYOH EAST,310025,1.33356606706026,103.856981751253,2025-04-02
202474,2025-04,TOA PAYOH,4 ROOM,115C,ALKAFF CRES,07 TO 09,93.0,Model A,2020,94 years 09 months,1040000.0,115C ALKAFF CRES,343115,1.33722847497236,103.872886634076,2025-04-02
202646,2025-04,WOODLANDS,3 ROOM,131,MARSILING RISE,07 TO 09,60.0,Improved,1985,58 years 10 months,390000.0,131 MARSILING RISE,730131,1.43847983955609,103.778613439344,2025-04-02
202679,2025-04,WOODLANDS,3 ROOM,185B,WOODLANDS ST 13,13 TO 15,68.0,Model A,2019,93 years 07 months,533000.0,185B WOODLANDS ST 13,732185,1.43585650383199,103.776294109996,2025-04-02
202753,2025-04,WOODLANDS,4 ROOM,787B,WOODLANDS CRES,01 TO 03,100.0,Model A,1997,71 years 07 months,545000.0,787B WOODLANDS CRES,732787,1.44456206997385,103.800811554206,2025-04-02
202776,2025-04,WOODLANDS,4 ROOM,573B,WOODLANDS DR 16,10 TO 12,93.0,Model A,2018,92 years 03 months,660000.0,573B WOODLANDS DR 16,732573,1.43084072475669,103.797770248134,2025-04-02
202797,2025-04,WOODLANDS,4 ROOM,895A,WOODLANDS DR 50,10 TO 12,99.0,Model A,1997,70 years 10 months,598000.0,895A WOODLANDS DR 50,730895,1.43607371173984,103.791488541391,2025-04-02
202855,2025-04,WOODLANDS,4 ROOM,783D,WOODLANDS RISE,10 TO 12,93.0,Model A,2018,92 years 04 months,617000.0,783D WOODLANDS RISE,734783,1.44697243135983,103.803367709955,2025-04-02
202893,2025-04,WOODLANDS,4 ROOM,872,WOODLANDS ST 81,04 TO 06,108.0,Model A,1996,70 years 02 months,555000.0,872 WOODLANDS ST 81,730872,1.44408730145683,103.789811521995,2025-04-02
202926,2025-04,WOODLANDS,5 ROOM,727,WOODLANDS CIRCLE,01 TO 03,121.0,Improved,1997,71 years 04 months,640000.0,727 WOODLANDS CIRCLE,730727,1.44367879146851,103.799836033871,2025-04-02
202955,2025-04,WOODLANDS,5 ROOM,702,WOODLANDS DR 40,07 TO 09,119.0,Improved,1996,70 years 09 months,658000.0,702 WOODLANDS DR 40,730702,1.44186518242192,103.796513720248,2025-04-02
202977,2025-04,WOODLANDS,5 ROOM,694C,WOODLANDS DR 62,10 TO 12,113.0,Improved,2018,92 years 06 months,772000.0,694C WOODLANDS DR 62,733694,1.43882273055925,103.80571417998,2025-04-02
203028,2025-04,WOODLANDS,5 ROOM,417,WOODLANDS ST 41,07 TO 09,128.0,Improved,1996,69 years 11 months,685000.0,417 WOODLANDS ST 41,730417,1.42885830961844,103.774024710128,2025-04-02
203050,2025-04,WOODLANDS,EXECUTIVE,788C,WOODLANDS CRES,04 TO 06,143.0,Maisonette,1999,73 years 02 months,818000.0,788C WOODLANDS CRES,733788,1.44387179785993,103.801833448049,2025-04-02
203064,2025-04,WOODLANDS,EXECUTIVE,646,WOODLANDS RING RD,04 TO 06,141.0,Apartment,1998,72 years 05 months,890000.0,646 WOODLANDS RING RD,730646,1.43760681675827,103.800402340562,2025-04-02
203065,2025-04,WOODLANDS,EXECUTIVE,650,WOODLANDS RING RD,10 TO 12,144.0,Maisonette,1998,72 years 03 months,935000.0,650 WOODLANDS RING RD,730650,1.43828467863174,103.800646271906,2025-04-02
203092,2025-04,YISHUN,2 ROOM,676A,YISHUN RING RD,04 TO 06,47.0,2-room,2018,92 years 07 months,360000.0,676A YISHUN RING RD,761676,1.42145242328288,103.84332790779,2025-04-02
203130,2025-04,YISHUN,3 ROOM,705,YISHUN AVE 5,01 TO 03,67.0,New Generation,1984,58 years 04 months,405000.0,705 YISHUN AVE 5,760705,1.42909454984153,103.829511668002,2025-04-02
203165,2025-04,YISHUN,3 ROOM,136,YISHUN RING RD,07 TO 09,68.0,New Generation,1984,58 years 07 months,432500.0,136 YISHUN RING RD,760136,1.43203129125603,103.831436163973,2025-04-02
203211,2025-04,YISHUN,3 ROOM,335B,YISHUN ST 31,07 TO 09,67.0,Model A,2015,89 years 08 months,478000.0,335B YISHUN ST 31,762335,1.43284184188975,103.844333075878,2025-04-02
203221,2025-04,YISHUN,3 ROOM,501A,YISHUN ST 51,13 TO 15,67.0,Model A,2018,91 years 11 months,512000.0,501A YISHUN ST 51,761501,1.41658398264925,103.840450135147,2025-04-02
203301,2025-04,YISHUN,4 ROOM,506B,YISHUN AVE 4,01 TO 03,93.0,Model A,2018,92 years 02 months,585000.0,506B YISHUN AVE 4,762506,1.41581868901228,103.840678829265,2025-04-02
203319,2025-04,YISHUN,4 ROOM,437,YISHUN AVE 6,07 TO 09,104.0,Model A,1988,62 years 06 months,545000.0,437 YISHUN AVE 6,760437,1.42168752611672,103.84756072452,2025-04-02
203361,2025-04,YISHUN,4 ROOM,329,YISHUN RING RD,10 TO 12,84.0,Simplified,1988,61 years 10 months,515000.0,329 YISHUN RING RD,760329,1.43030125625917,103.842618159616,2025-04-02
203385,2025-04,YISHUN,4 ROOM,336A,YISHUN ST 31,10 TO 12,92.0,Model A,2015,89 years 08 months,600000.0,336A YISHUN ST 31,761336,1.43129939349116,103.84467527369,2025-04-02
203430,2025-04,YISHUN,4 ROOM,760,YISHUN ST 72,04 TO 06,84.0,Simplified,1987,61 years,520000.0,760 YISHUN ST 72,760760,1.42579485526292,103.832724670537,2025-04-02
203514,2025-04,YISHUN,EXECUTIVE,606,YISHUN ST 61,01 TO 03,146.0,Maisonette,1987,61 years 08 months,825000.0,606 YISHUN ST 61,760606,1.42133417332717,103.836318252115,2025-04-02
197048,2025-04,ANG MO KIO,3 ROOM,416,ANG MO KIO AVE 10,01 TO 03,74.0,New Generation,1979,53 years 06 months,425000.0,416 ANG MO KIO AVE 10,560416,1.3645417089084,103.855103690549,2025-04-03
197129,2025-04,ANG MO KIO,3 ROOM,180,ANG MO KIO AVE 5,04 TO 06,68.0,New Generation,1981,55 years 01 month,440000.0,180 ANG MO KIO AVE 5,560180,1.37667706463381,103.838361037555,2025-04-03
197161,2025-04,ANG MO KIO,4 ROOM,308B,ANG MO KIO AVE 1,04 TO 06,94.0,Model A,2012,86 years 06 months,871000.0,308B ANG MO KIO AVE 1,562308,1.3652661423815,103.844538059044,2025-04-03
197184,2025-04,ANG MO KIO,4 ROOM,327,ANG MO KIO AVE 3,04 TO 06,98.0,New Generation,1977,51 years 04 months,603888.0,327 ANG MO KIO AVE 3,560327,1.36705284380639,103.846987446489,2025-04-03
197364,2025-04,BEDOK,3 ROOM,4,BEDOK STH AVE 1,01 TO 03,65.0,Improved,1976,49 years 10 months,396800.0,4 BEDOK STH AVE 1,460004,1.32248962296588,103.933405282585,2025-04-03
197397,2025-04,BEDOK,4 ROOM,409,BEDOK NTH AVE 2,01 TO 03,92.0,New Generation,1980,54 years 01 month,563000.0,409 BEDOK NTH AVE 2,460409,1.32810291260758,103.932938099482,2025-04-03
197585,2025-04,BISHAN,4 ROOM,503,BISHAN ST 11,04 TO 06,113.0,Model A,1989,63 years 08 months,1230000.0,503 BISHAN ST 11,570503,1.34903237530043,103.848047514719,2025-04-03
197654,2025-04,BUKIT BATOK,2 ROOM,450A,BT BATOK WEST AVE 6,04 TO 06,38.0,Model A,2019,93 years,358000.0,450A BT BATOK WEST AVE 6,651450,1.35279091158198,103.744536033565,2025-04-03
197696,2025-04,BUKIT BATOK,3 ROOM,242,BT BATOK EAST AVE 5,10 TO 12,69.0,New Generation,1985,59 years 09 months,423000.0,242 BT BATOK EAST AVE 5,650242,1.35095950808957,103.756233418128,2025-04-03
197730,2025-04,BUKIT BATOK,3 ROOM,540,BT BATOK ST 52,07 TO 09,73.0,Model A,1987,61 years 06 months,430000.0,540 BT BATOK ST 52,650540,1.35440568176535,103.75130601487,2025-04-03
197742,2025-04,BUKIT BATOK,3 ROOM,410,BT BATOK WEST AVE 4,07 TO 09,68.0,New Generation,1988,62 years 02 months,405000.0,410 BT BATOK WEST AVE 4,650410,1.36445863795592,103.744991611928,2025-04-03
197743,2025-04,BUKIT BATOK,3 ROOM,416,BT BATOK WEST AVE 4,01 TO 03,73.0,Model A,1987,61 years 08 months,420000.0,416 BT BATOK WEST AVE 4,650416,1.36323334513612,103.745988532649,2025-04-03
197760,2025-04,BUKIT BATOK,3 ROOM,146,BT BATOK WEST AVE 6,10 TO 12,68.0,New Generation,1984,58 years 05 months,438000.0,146 BT BATOK WEST AVE 6,650146,1.34966890869827,103.744083499088,2025-04-03
197761,2025-04,BUKIT BATOK,3 ROOM,450A,BT BATOK WEST AVE 6,13 TO 15,67.0,Model A,2019,93 years,515000.0,450A BT BATOK WEST AVE 6,651450,1.35279091158198,103.744536033565,2025-04-03
197831,2025-04,BUKIT BATOK,4 ROOM,426,BT BATOK WEST AVE 2,04 TO 06,83.0,Simplified,1987,61 years 02 months,485000.0,426 BT BATOK WEST AVE 2,650426,1.36167974405645,103.744897400512,2025-04-03
197848,2025-04,BUKIT BATOK,4 ROOM,385,BT BATOK WEST AVE 5,07 TO 09,90.0,Model A,2005,78 years 10 months,560000.0,385 BT BATOK WEST AVE 5,650385,1.36348353323119,103.752171420758,2025-04-03
197905,2025-04,BUKIT BATOK,4 ROOM,441A,BT BATOK WEST AVE 8,13 TO 15,92.0,Model A,2019,93 years,668888.0,441A BT BATOK WEST AVE 8,651441,1.35610548541132,103.739002965384,2025-04-03
197919,2025-04,BUKIT BATOK,4 ROOM,460D,BT BATOK WEST AVE 9,07 TO 09,93.0,Model A,2020,94 years 02 months,700000.0,460D BT BATOK WEST AVE 9,654460,1.35357038229401,103.740214836034,2025-04-03
198140,2025-04,BUKIT MERAH,4 ROOM,4,DELTA AVE,01 TO 03,92.0,New Generation,1985,59 years 05 months,670000.0,4 DELTA AVE,161004,1.29182862424357,103.826545813025,2025-04-03
198255,2025-04,BUKIT MERAH,5 ROOM,63A,LENGKOK BAHRU,19 TO 21,120.0,Improved,2001,75 years 08 months,1130000.0,63A LENGKOK BAHRU,151063,1.28965100014149,103.815399530717,2025-04-03
198264,2025-04,BUKIT MERAH,5 ROOM,25,TELOK BLANGAH CRES,10 TO 12,114.0,Standard,1975,49 years 04 months,750000.0,25 TELOK BLANGAH CRES,90025,1.27633689840283,103.819194353538,2025-04-03
198343,2025-04,BUKIT PANJANG,4 ROOM,175,LOMPANG RD,22 TO 24,104.0,Model A,1997,71 years 09 months,740000.0,175 LOMPANG RD,670175,1.37979604054277,103.765989537263,2025-04-03
198473,2025-04,BUKIT PANJANG,EXECUTIVE,228,PENDING RD,01 TO 03,146.0,Maisonette,1988,61 years 11 months,805000.0,228 PENDING RD,670228,1.3753466349656,103.770955400333,2025-04-03
198500,2025-04,CENTRAL AREA,3 ROOM,30,KELANTAN RD,10 TO 12,66.0,Improved,1981,55 years 04 months,575000.0,30 KELANTAN RD,200030,1.30547181939625,103.856879434972,2025-04-03
198506,2025-04,CENTRAL AREA,3 ROOM,8,SELEGIE RD,04 TO 06,58.0,Standard,1974,47 years 10 months,429000.0,8 SELEGIE RD,180008,1.30320667141798,103.850493368737,2025-04-03
198524,2025-04,CENTRAL AREA,3 ROOM,263,WATERLOO ST,07 TO 09,60.0,Improved,1978,52 years 04 months,528888.0,263 WATERLOO ST,180263,1.29860886084679,103.852267043086,2025-04-03
198540,2025-04,CENTRAL AREA,4 ROOM,1F,CANTONMENT RD,37 TO 39,95.0,Type S1,2011,84 years 10 months,1388888.0,1F CANTONMENT RD,85601,1.27598699469414,103.841191762017,2025-04-03
198671,2025-04,CHOA CHU KANG,4 ROOM,638,CHOA CHU KANG ST 64,04 TO 06,100.0,Premium Apartment,1998,71 years 10 months,640000.0,638 CHOA CHU KANG ST 64,680638,1.39780651380058,103.748372512668,2025-04-03
198968,2025-04,GEYLANG,3 ROOM,95,ALJUNIED CRES,01 TO 03,65.0,Improved,1975,49 years 05 months,398800.0,95 ALJUNIED CRES,380095,1.32170329030889,103.886195689242,2025-04-03
199070,2025-04,GEYLANG,4 ROOM,18B,CIRCUIT RD,10 TO 12,93.0,Model A,2016,90 years 08 months,960000.0,18B CIRCUIT RD,372018,1.32918105126141,103.888248441219,2025-04-03
199170,2025-04,HOUGANG,3 ROOM,1,HOUGANG AVE 3,01 TO 03,59.0,Improved,1975,49 years 05 months,328000.0,1 HOUGANG AVE 3,530001,1.36413097349222,103.89300132385,2025-04-03
199186,2025-04,HOUGANG,3 ROOM,309,HOUGANG AVE 5,07 TO 09,67.0,New Generation,1982,56 years 08 months,450000.0,309 HOUGANG AVE 5,530309,1.36620554681345,103.895152424666,2025-04-03
199245,2025-04,HOUGANG,4 ROOM,996A,BUANGKOK CRES,13 TO 15,92.0,Model A,2019,93 years 06 months,705000.0,996A BUANGKOK CRES,531996,1.38646844449981,103.881610480948,2025-04-03
199246,2025-04,HOUGANG,4 ROOM,996B,BUANGKOK CRES,13 TO 15,93.0,Model A,2019,93 years 06 months,662800.0,996B BUANGKOK CRES,532996,1.38611330718324,103.882052260458,2025-04-03
199272,2025-04,HOUGANG,4 ROOM,456,HOUGANG AVE 10,01 TO 03,104.0,Model A,1992,66 years 07 months,610000.0,456 HOUGANG AVE 10,530456,1.3771713742984,103.895401018469,2025-04-03
199283,2025-04,HOUGANG,4 ROOM,603,HOUGANG AVE 4,01 TO 03,104.0,Model A,1985,59 years 07 months,538888.0,603 HOUGANG AVE 4,530603,1.37143602784682,103.885845075469,2025-04-03
199313,2025-04,HOUGANG,4 ROOM,614,HOUGANG AVE 8,10 TO 12,104.0,Model A,1986,59 years 10 months,610000.0,614 HOUGANG AVE 8,530614,1.36914010573801,103.8846969292,2025-04-03
199342,2025-04,HOUGANG,4 ROOM,693,HOUGANG ST 61,07 TO 09,84.0,Simplified,1987,61 years 03 months,515000.0,693 HOUGANG ST 61,530693,1.3766979699603,103.887541049902,2025-04-03
199362,2025-04,HOUGANG,4 ROOM,475D,UPP SERANGOON CRES,16 TO 18,92.0,DBSS,2014,88 years 08 months,820000.0,475D UPP SERANGOON CRES,537475,1.37518254401411,103.900405982824,2025-04-03
199498,2025-04,JURONG EAST,3 ROOM,36,TEBAN GDNS RD,13 TO 15,77.0,Improved,1977,51 years 04 months,364000.0,36 TEBAN GDNS RD,600036,1.31997450302269,103.742739188864,2025-04-03
199503,2025-04,JURONG EAST,4 ROOM,110,JURONG EAST ST 13,10 TO 12,94.0,New Generation,1982,56 years,540000.0,110 JURONG EAST ST 13,600110,1.33887088246403,103.736218506114,2025-04-03
199539,2025-04,JURONG EAST,4 ROOM,282,TOH GUAN RD,04 TO 06,92.0,Model A2,1998,72 years 08 months,500000.0,282 TOH GUAN RD,600282,1.3396058298969,103.747111253923,2025-04-03
199563,2025-04,JURONG EAST,5 ROOM,35,TEBAN GDNS RD,10 TO 12,131.0,Standard,1977,51 years 03 months,568000.0,35 TEBAN GDNS RD,600035,1.31955255991308,103.742644766325,2025-04-03
199570,2025-04,JURONG EAST,EXECUTIVE,287A,JURONG EAST ST 21,19 TO 21,143.0,Apartment,1998,72 years 07 months,975000.0,287A JURONG EAST ST 21,601287,1.33846862533469,103.743808187469,2025-04-03
199637,2025-04,JURONG WEST,3 ROOM,120,HO CHING RD,01 TO 03,67.0,Improved,1972,45 years 11 months,320000.0,120 HO CHING RD,610120,1.33540764836183,103.724260953568,2025-04-03
199714,2025-04,JURONG WEST,4 ROOM,489,JURONG WEST AVE 1,04 TO 06,103.0,Model A,1984,58 years 05 months,510000.0,489 JURONG WEST AVE 1,640489,1.34917459623674,103.72723983348,2025-04-03
199830,2025-04,JURONG WEST,4 ROOM,346,KANG CHING RD,07 TO 09,102.0,Model A,1997,71 years 02 months,573000.0,346 KANG CHING RD,610346,1.34023656666002,103.720885227164,2025-04-03
199975,2025-04,JURONG WEST,EXECUTIVE,115,HO CHING RD,16 TO 18,141.0,Apartment,1999,73 years,888888.0,115 HO CHING RD,610115,1.33367081421694,103.724659608331,2025-04-03
199977,2025-04,JURONG WEST,EXECUTIVE,274A,JURONG WEST AVE 3,04 TO 06,126.0,Apartment,2001,75 years 10 months,652000.0,274A JURONG WEST AVE 3,641274,1.35226505301544,103.703603969219,2025-04-03
199988,2025-04,JURONG WEST,EXECUTIVE,558,JURONG WEST ST 42,07 TO 09,150.0,Maisonette,1985,59 years 04 months,790000.0,558 JURONG WEST ST 42,640558,1.35419821230377,103.717344057356,2025-04-03
199999,2025-04,JURONG WEST,EXECUTIVE,629,JURONG WEST ST 65,13 TO 15,130.0,Apartment,2001,75 years 05 months,790000.0,629 JURONG WEST ST 65,640629,1.34251756766153,103.699667819397,2025-04-03
200073,2025-04,KALLANG/WHAMPOA,3 ROOM,3,ST. GEORGE'S RD,07 TO 09,59.0,Improved,1976,50 years 02 months,409000.0,3 ST. GEORGE'S RD,320003,1.3225873518737,103.861107276991,2025-04-03
200128,2025-04,KALLANG/WHAMPOA,4 ROOM,17,JLN TENTERAM,13 TO 15,75.0,Model A,2001,75 years 08 months,605000.0,17 JLN TENTERAM,321017,1.32821169071169,103.859812573047,2025-04-03
200238,2025-04,MARINE PARADE,4 ROOM,75,MARINE DR,01 TO 03,82.0,Improved,1976,50 years 04 months,688000.0,75 MARINE DR,440075,1.30337032890276,103.907439956881,2025-04-03
200243,2025-04,MARINE PARADE,4 ROOM,54,MARINE TER,07 TO 09,88.0,Improved,1975,48 years 10 months,650000.0,54 MARINE TER,440054,1.30530229101584,103.915014006287,2025-04-03
200418,2025-04,PUNGGOL,3 ROOM,120A,EDGEDALE PLAINS,07 TO 09,67.0,Model A,2017,91 years 02 months,510000.0,120A EDGEDALE PLAINS,821120,1.39451217943806,103.907964274268,2025-04-03
200807,2025-04,QUEENSTOWN,3 ROOM,1,GHIM MOH RD,04 TO 06,65.0,Improved,1976,50 years 04 months,380000.0,1 GHIM MOH RD,270001,1.31287975684307,103.786855017635,2025-04-03
200963,2025-04,SEMBAWANG,2 ROOM,128B,CANBERRA ST,10 TO 12,47.0,Model A,2018,92 years 07 months,399000.0,128B CANBERRA ST,752128,1.44514889153347,103.833925659353,2025-04-03
201120,2025-04,SEMBAWANG,4 ROOM,107B,CANBERRA ST,10 TO 12,93.0,Model A,2018,92 years 04 months,646888.0,107B CANBERRA ST,752107,1.44916516333167,103.833497265983,2025-04-03
201306,2025-04,SENGKANG,2 ROOM,455A,SENGKANG WEST AVE,07 TO 09,38.0,2-room,2020,94 years 06 months,352000.0,455A SENGKANG WEST AVE,791455,1.39157665293201,103.870444622949,2025-04-03
201421,2025-04,SENGKANG,4 ROOM,331C,ANCHORVALE ST,13 TO 15,92.0,Model A,2015,89 years 05 months,710000.0,331C ANCHORVALE ST,543331,1.39557791060487,103.889773699699,2025-04-03
201455,2025-04,SENGKANG,4 ROOM,216B,COMPASSVALE DR,10 TO 12,92.0,Premium Apartment,2017,91 years 02 months,850000.0,216B COMPASSVALE DR,542216,1.39051439660213,103.893670671714,2025-04-03
201492,2025-04,SENGKANG,4 ROOM,297B,COMPASSVALE ST,04 TO 06,94.0,Premium Apartment,2001,75 years 05 months,579888.0,297B COMPASSVALE ST,542297,1.39473706267062,103.900964937802,2025-04-03
201688,2025-04,SENGKANG,5 ROOM,299B,COMPASSVALE ST,07 TO 09,115.0,Premium Apartment,2001,75 years 05 months,610000.0,299B COMPASSVALE ST,542299,1.39682859571624,103.901186812758,2025-04-03
201822,2025-04,SERANGOON,3 ROOM,152,SERANGOON NTH AVE 1,04 TO 06,64.0,Simplified,1986,60 years 10 months,432000.0,152 SERANGOON NTH AVE 1,550152,1.36934726797811,103.872613997697,2025-04-03
202145,2025-04,TAMPINES,4 ROOM,614A,TAMPINES NTH DR 1,10 TO 12,93.0,Model A,2021,94 years 10 months,750000.0,614A TAMPINES NTH DR 1,521614,1.36489478768898,103.936692419369,2025-04-03
202181,2025-04,TAMPINES,4 ROOM,320,TAMPINES ST 33,04 TO 06,109.0,Model A,1995,69 years 07 months,630000.0,320 TAMPINES ST 33,520320,1.3507018176439,103.957051867879,2025-04-03
202329,2025-04,TAMPINES,5 ROOM,608A,TAMPINES NTH DR 1,01 TO 03,113.0,Improved,2020,94 years 07 months,820000.0,608A TAMPINES NTH DR 1,521608,1.36314791550448,103.93511840985,2025-04-03
202445,2025-04,TOA PAYOH,3 ROOM,102B,BIDADARI PK DR,13 TO 15,68.0,Model A,2021,95 years 03 months,835000.0,102B BIDADARI PK DR,342102,1.33622045424375,103.871847066518,2025-04-03
202584,2025-04,TOA PAYOH,4 ROOM,193,LOR 4 TOA PAYOH,16 TO 18,84.0,Improved,1974,48 years 04 months,668000.0,193 LOR 4 TOA PAYOH,310193,1.33159005591995,103.851295104405,2025-04-03
202673,2025-04,TOA PAYOH,5 ROOM,14,LOR 7 TOA PAYOH,22 TO 24,120.0,Improved,1998,72 years 04 months,955000.0,14 LOR 7 TOA PAYOH,310014,1.33666896706719,103.858353616452,2025-04-03
202757,2025-04,WOODLANDS,3 ROOM,317,WOODLANDS ST 31,07 TO 09,73.0,Model A,1993,67 years 02 months,465000.0,317 WOODLANDS ST 31,730317,1.43189593455214,103.776268265174,2025-04-03
202767,2025-04,WOODLANDS,4 ROOM,27,MARSILING DR,01 TO 03,91.0,New Generation,1977,51 years 08 months,460000.0,27 MARSILING DR,730027,1.44227708494378,103.774172807721,2025-04-03
202776,2025-04,WOODLANDS,4 ROOM,571A,WOODLANDS AVE 1,07 TO 09,92.0,Model A,2013,87 years 08 months,635000.0,571A WOODLANDS AVE 1,731571,1.43017030750239,103.791091612057,2025-04-03
203178,2025-04,YISHUN,3 ROOM,347B,YISHUN AVE 11,10 TO 12,67.0,DBSS,2013,87 years 07 months,588000.0,347B YISHUN AVE 11,762347,1.42749509336445,103.842377140401,2025-04-03
203207,2025-04,YISHUN,3 ROOM,709,YISHUN AVE 5,07 TO 09,82.0,New Generation,1984,58 years 01 month,448000.0,709 YISHUN AVE 5,760709,1.4285690021208,103.827735428264,2025-04-03
203243,2025-04,YISHUN,3 ROOM,111,YISHUN RING RD,07 TO 09,71.0,New Generation,1982,56 years 04 months,420000.0,111 YISHUN RING RD,760111,1.43321263970177,103.828617498413,2025-04-03
203283,2025-04,YISHUN,3 ROOM,205,YISHUN ST 21,04 TO 06,67.0,New Generation,1985,58 years 11 months,458888.0,205 YISHUN ST 21,760205,1.43106560031808,103.836307087652,2025-04-03
203291,2025-04,YISHUN,3 ROOM,334D,YISHUN ST 31,07 TO 09,67.0,Model A,2015,89 years 08 months,480000.0,334D YISHUN ST 31,764334,1.43241464963844,103.846517127438,2025-04-03
203353,2025-04,YISHUN,4 ROOM,427,YISHUN AVE 11,04 TO 06,84.0,Simplified,1988,62 years 06 months,479000.0,427 YISHUN AVE 11,760427,1.42206906919871,103.848091765572,2025-04-03
203408,2025-04,YISHUN,4 ROOM,247,YISHUN AVE 9,07 TO 09,105.0,Model A,1985,59 years 06 months,575000.0,247 YISHUN AVE 9,760247,1.43499780616096,103.842069242281,2025-04-03
203468,2025-04,YISHUN,4 ROOM,335C,YISHUN ST 31,10 TO 12,92.0,Model A,2015,89 years 09 months,580000.0,335C YISHUN ST 31,763335,1.43248777014111,103.844367368405,2025-04-03
203476,2025-04,YISHUN,4 ROOM,468A,YISHUN ST 43,07 TO 09,93.0,Model A,2019,93 years 10 months,605000.0,468A YISHUN ST 43,761468,1.42532389372284,103.851843638346,2025-04-03
203506,2025-04,YISHUN,4 ROOM,719,YISHUN ST 71,01 TO 03,89.0,Simplified,1987,61 years 06 months,505000.0,719 YISHUN ST 71,760719,1.42688084988418,103.829303136688,2025-04-03
203526,2025-04,YISHUN,5 ROOM,432B,YISHUN AVE 1,04 TO 06,112.0,Improved,2015,89 years 06 months,680000.0,432B YISHUN AVE 1,762432,1.41909993352842,103.846461812401,2025-04-03
197003,2025-04,ANG MO KIO,3 ROOM,215,ANG MO KIO AVE 1,01 TO 03,73.0,New Generation,1976,50 years 01 month,435888.0,215 ANG MO KIO AVE 1,560215,1.36655830166122,103.841624082978,2025-04-04
197004,2025-04,ANG MO KIO,3 ROOM,321,ANG MO KIO AVE 1,04 TO 06,73.0,New Generation,1977,51 years 03 months,435000.0,321 ANG MO KIO AVE 1,560321,1.36514126911853,103.8487041858,2025-04-04
197144,2025-04,ANG MO KIO,3 ROOM,509,ANG MO KIO AVE 8,10 TO 12,67.0,New Generation,1980,54 years 03 months,440000.0,509 ANG MO KIO AVE 8,560509,1.37400086510074,103.850139806283,2025-04-04
197200,2025-04,ANG MO KIO,4 ROOM,644,ANG MO KIO AVE 4,07 TO 09,100.0,New Generation,1980,54 years 09 months,568000.0,644 ANG MO KIO AVE 4,560644,1.37914986228487,103.84093819913,2025-04-04
197216,2025-04,ANG MO KIO,4 ROOM,309A,ANG MO KIO ST 31,13 TO 15,95.0,Model A,2006,80 years 01 month,840000.0,309A ANG MO KIO ST 31,562309,1.36502933267756,103.845300649183,2025-04-04
197287,2025-04,BEDOK,3 ROOM,521,BEDOK NTH AVE 1,04 TO 06,67.0,New Generation,1979,53 years 04 months,425000.0,521 BEDOK NTH AVE 1,460521,1.33025307073546,103.927058345096,2025-04-04
197379,2025-04,BEDOK,3 ROOM,58,CHAI CHEE DR,10 TO 12,76.0,Model A,1983,57 years 09 months,442000.0,58 CHAI CHEE DR,460058,1.32591889655628,103.91975686812,2025-04-04
197409,2025-04,BEDOK,4 ROOM,403,BEDOK NTH AVE 3,04 TO 06,92.0,New Generation,1980,54 years 01 month,572000.0,403 BEDOK NTH AVE 3,460403,1.32979984749858,103.933844368582,2025-04-04
197504,2025-04,BEDOK,4 ROOM,672,JLN DAMAI,07 TO 09,108.0,Model A,1996,70 years 05 months,732800.0,672 JLN DAMAI,410672,1.33207912967501,103.908757101121,2025-04-04
197513,2025-04,BEDOK,5 ROOM,415,BEDOK NTH AVE 2,04 TO 06,119.0,Improved,1978,52 years 08 months,670000.0,415 BEDOK NTH AVE 2,460415,1.32964999532963,103.930260606366,2025-04-04
197517,2025-04,BEDOK,5 ROOM,405,BEDOK NTH AVE 3,07 TO 09,118.0,Improved,1980,54 years 04 months,752888.0,405 BEDOK NTH AVE 3,460405,1.32871338222698,103.93409540275,2025-04-04
197547,2025-04,BEDOK,5 ROOM,766,BEDOK RESERVOIR VIEW,13 TO 15,115.0,Premium Apartment,2000,74 years 09 months,818000.0,766 BEDOK RESERVOIR VIEW,470766,1.33599899207348,103.936274523658,2025-04-04
197643,2025-04,BISHAN,5 ROOM,158,BISHAN ST 13,10 TO 12,121.0,Improved,1988,61 years 11 months,1008000.0,158 BISHAN ST 13,570158,1.34653526211205,103.856208219158,2025-04-04
197702,2025-04,BUKIT BATOK,3 ROOM,264,BT BATOK EAST AVE 4,04 TO 06,73.0,Model A,1985,59 years 01 month,418000.0,264 BT BATOK EAST AVE 4,650264,1.34991025839712,103.759040163588,2025-04-04
198152,2025-04,BUKIT MERAH,4 ROOM,13,CANTONMENT CL,19 TO 21,90.0,Model A,2003,76 years 10 months,1050000.0,13 CANTONMENT CL,80013,1.27469944029956,103.840485373883,2025-04-04
198199,2025-04,BUKIT MERAH,4 ROOM,38,JLN RUMAH TINGGI,16 TO 18,100.0,Model A,1997,71 years 03 months,830000.0,38 JLN RUMAH TINGGI,150038,1.28863365915922,103.809643901495,2025-04-04
198241,2025-04,BUKIT MERAH,4 ROOM,90A,TELOK BLANGAH ST 31,10 TO 12,93.0,Model A,2018,92 years 09 months,955000.0,90A TELOK BLANGAH ST 31,101090,1.27773457800288,103.807093263136,2025-04-04
198276,2025-04,BUKIT MERAH,5 ROOM,68,REDHILL CL,01 TO 03,115.0,Improved,2001,74 years 11 months,905000.0,68 REDHILL CL,150068,1.28687207033361,103.816026124534,2025-04-04
198316,2025-04,BUKIT PANJANG,3 ROOM,636A,SENJA RD,28 TO 30,67.0,Model A,2015,89 years 08 months,548888.0,636A SENJA RD,671636,1.38691566473158,103.758538070592,2025-04-04
198350,2025-04,BUKIT PANJANG,4 ROOM,148,GANGSA RD,04 TO 06,103.0,Model A,1988,62 years 08 months,545000.0,148 GANGSA RD,670148,1.37591870711085,103.766191760192,2025-04-04
198625,2025-04,CHOA CHU KANG,4 ROOM,445,CHOA CHU KANG AVE 4,04 TO 06,100.0,Model A,1997,70 years 11 months,530000.0,445 CHOA CHU KANG AVE 4,680445,1.38170883113996,103.736662612875,2025-04-04
198711,2025-04,CHOA CHU KANG,4 ROOM,816B,KEAT HONG LINK,16 TO 18,92.0,Model A,2017,91 years 06 months,648000.0,816B KEAT HONG LINK,682816,1.37604113515339,103.748460043787,2025-04-04
198726,2025-04,CHOA CHU KANG,5 ROOM,276,CHOA CHU KANG AVE 2,04 TO 06,122.0,Improved,1993,67 years 03 months,645000.0,276 CHOA CHU KANG AVE 2,680276,1.37956864583538,103.744327184637,2025-04-04
198740,2025-04,CHOA CHU KANG,5 ROOM,484B,CHOA CHU KANG AVE 5,04 TO 06,115.0,Improved,1999,73 years 01 month,605000.0,484B CHOA CHU KANG AVE 5,682484,1.37623030762822,103.736338345807,2025-04-04
198768,2025-04,CHOA CHU KANG,5 ROOM,691B,CHOA CHU KANG CRES,16 TO 18,110.0,Improved,2003,77 years 02 months,605000.0,691B CHOA CHU KANG CRES,682691,1.40162672032469,103.751577560463,2025-04-04
198852,2025-04,CLEMENTI,3 ROOM,420,CLEMENTI AVE 1,37 TO 39,74.0,Model A,2013,87 years 06 months,730000.0,420 CLEMENTI AVE 1,120420,1.31004548976462,103.769123845594,2025-04-04
198923,2025-04,CLEMENTI,4 ROOM,416,CLEMENTI AVE 1,07 TO 09,100.0,Model A,2013,87 years 06 months,888000.0,416 CLEMENTI AVE 1,120416,1.31033592235344,103.771355673383,2025-04-04
198924,2025-04,CLEMENTI,4 ROOM,421,CLEMENTI AVE 1,07 TO 09,100.0,Model A,2013,87 years 06 months,952488.0,421 CLEMENTI AVE 1,120421,1.30909798702908,103.768355913054,2025-04-04
198962,2025-04,CLEMENTI,4 ROOM,507,WEST COAST DR,04 TO 06,92.0,New Generation,1978,52 years 05 months,530000.0,507 WEST COAST DR,120507,1.31207968902337,103.760802118745,2025-04-04
199011,2025-04,GEYLANG,3 ROOM,30,BALAM RD,01 TO 03,57.0,Standard,1973,47 years 04 months,338000.0,30 BALAM RD,370030,1.32965461509134,103.887183600084,2025-04-04
199047,2025-04,GEYLANG,3 ROOM,46,CIRCUIT RD,04 TO 06,52.0,Standard,1971,44 years 10 months,366000.0,46 CIRCUIT RD,370046,1.32615469503568,103.886047023988,2025-04-04
199105,2025-04,GEYLANG,4 ROOM,82B,CIRCUIT RD,04 TO 06,93.0,Model A,2020,94 years 02 months,950000.0,82B CIRCUIT RD,372082,1.32372337837321,103.889401456756,2025-04-04
199152,2025-04,GEYLANG,5 ROOM,51,SIMS DR,04 TO 06,114.0,Standard,1977,51 years 01 month,658888.0,51 SIMS DR,380051,1.31629232098944,103.878898984422,2025-04-04
199165,2025-04,HOUGANG,2 ROOM,998A,BUANGKOK CRES,04 TO 06,47.0,Model A,2019,93 years 09 months,386000.0,998A BUANGKOK CRES,531998,1.38375782968293,103.880172193688,2025-04-04
199262,2025-04,HOUGANG,3 ROOM,694,HOUGANG ST 61,01 TO 03,64.0,Simplified,1987,60 years 11 months,448000.0,694 HOUGANG ST 61,530694,1.37606364168578,103.88793921959,2025-04-04
199297,2025-04,HOUGANG,4 ROOM,991A,BUANGKOK LINK,07 TO 09,93.0,Model A,2019,93 years 03 months,670000.0,991A BUANGKOK LINK,531991,1.38430780704299,103.882225801104,2025-04-04
199353,2025-04,HOUGANG,4 ROOM,630,HOUGANG AVE 8,01 TO 03,84.0,Simplified,1986,60 years 09 months,515000.0,630 HOUGANG AVE 8,530630,1.37028550123907,103.881064208977,2025-04-04
199403,2025-04,HOUGANG,4 ROOM,473C,UPP SERANGOON CRES,04 TO 06,93.0,Model A,2017,91 years 03 months,685000.0,473C UPP SERANGOON CRES,533473,1.37628006481899,103.901387559,2025-04-04
199478,2025-04,HOUGANG,EXECUTIVE,427,HOUGANG AVE 6,01 TO 03,145.0,Maisonette,1990,64 years 01 month,1060000.0,427 HOUGANG AVE 6,530427,1.37447080577543,103.893091053432,2025-04-04
199486,2025-04,HOUGANG,EXECUTIVE,222,HOUGANG ST 21,04 TO 06,156.0,Maisonette,1992,66 years 07 months,1250000.0,222 HOUGANG ST 21,530222,1.35633467907028,103.88372269506,2025-04-04
199547,2025-04,JURONG EAST,4 ROOM,113,JURONG EAST ST 13,07 TO 09,90.0,New Generation,1981,55 years 03 months,538000.0,113 JURONG EAST ST 13,600113,1.33879791361243,103.734807724832,2025-04-04
199801,2025-04,JURONG WEST,4 ROOM,644,JURONG WEST ST 61,07 TO 09,100.0,Model A,1998,72 years 05 months,560000.0,644 JURONG WEST ST 61,640644,1.33959189050404,103.696357637705,2025-04-04
199802,2025-04,JURONG WEST,4 ROOM,655B,JURONG WEST ST 61,04 TO 06,85.0,Model A2,2002,76 years 07 months,532888.0,655B JURONG WEST ST 61,642655,1.33550103973985,103.697513956741,2025-04-04
199912,2025-04,JURONG WEST,5 ROOM,693,JURONG WEST CTRL 1,01 TO 03,123.0,Premium Apartment,1998,72 years,633000.0,693 JURONG WEST CTRL 1,640693,1.34290033614079,103.706185188199,2025-04-04
200256,2025-04,KALLANG/WHAMPOA,EXECUTIVE,110,MCNAIR RD,04 TO 06,144.0,Apartment,1987,61 years 09 months,1038888.0,110 MCNAIR RD,320110,1.32207919748314,103.859079081313,2025-04-04
200347,2025-04,PASIR RIS,4 ROOM,252,PASIR RIS ST 21,07 TO 09,107.0,Model A,1993,67 years 09 months,610000.0,252 PASIR RIS ST 21,510252,1.36817271834193,103.962563714825,2025-04-04
200438,2025-04,PASIR RIS,EXECUTIVE,235,PASIR RIS ST 21,04 TO 06,146.0,Apartment,1993,67 years 04 months,840000.0,235 PASIR RIS ST 21,510235,1.37346122110823,103.962314187689,2025-04-04
200439,2025-04,PASIR RIS,EXECUTIVE,244,PASIR RIS ST 21,07 TO 09,148.0,Apartment,1993,67 years 04 months,870000.0,244 PASIR RIS ST 21,510244,1.37145484462509,103.963382896053,2025-04-04
200441,2025-04,PASIR RIS,EXECUTIVE,466,PASIR RIS ST 41,04 TO 06,144.0,Apartment,1992,66 years 09 months,920000.0,466 PASIR RIS ST 41,510466,1.37315409877617,103.958128748489,2025-04-04
200625,2025-04,PUNGGOL,4 ROOM,110B,PUNGGOL FIELD,13 TO 15,90.0,Model A,2003,77 years 01 month,608000.0,110B PUNGGOL FIELD,822110,1.39566023887701,103.909627012363,2025-04-04
200720,2025-04,PUNGGOL,5 ROOM,171C,EDGEDALE PLAINS,16 TO 18,110.0,Improved,2004,78 years,700000.0,171C EDGEDALE PLAINS,823171,1.39477528915174,103.913436803622,2025-04-04
200964,2025-04,QUEENSTOWN,4 ROOM,48,STRATHMORE AVE,40 TO 42,85.0,Model A,2006,80 years 09 months,1055888.0,48 STRATHMORE AVE,140048,1.29380260290314,103.807789228113,2025-04-04
200996,2025-04,SEMBAWANG,2 ROOM,117B,CANBERRA CRES,04 TO 06,47.0,Model A,2020,94 years 02 months,419000.0,117B CANBERRA CRES,752117,1.4447956978802,103.830159588142,2025-04-04
201228,2025-04,SEMBAWANG,4 ROOM,476,SEMBAWANG DR,10 TO 12,90.0,Model A,2000,74 years 06 months,520000.0,476 SEMBAWANG DR,750476,1.45154963235734,103.816931737183,2025-04-04
201235,2025-04,SEMBAWANG,4 ROOM,501C,WELLINGTON CIRCLE,10 TO 12,90.0,Model A,2001,75 years 05 months,560000.0,501C WELLINGTON CIRCLE,753501,1.45169408187552,103.821715715582,2025-04-04
201300,2025-04,SEMBAWANG,5 ROOM,126A,CANBERRA ST,01 TO 03,116.0,Improved,2021,94 years 10 months,810000.0,126A CANBERRA ST,751126,1.44515880423783,103.834981318758,2025-04-04
201359,2025-04,SENGKANG,2 ROOM,355A,ANCHORVALE LANE,10 TO 12,47.0,2-room,2021,94 years 11 months,388000.0,355A ANCHORVALE LANE,541355,1.39296872192969,103.885107193078,2025-04-04
201529,2025-04,SENGKANG,4 ROOM,210B,COMPASSVALE LANE,13 TO 15,97.0,Model A,2013,86 years 11 months,668000.0,210B COMPASSVALE LANE,542210,1.38452262212891,103.899761738235,2025-04-04
201612,2025-04,SENGKANG,4 ROOM,441B,FERNVALE RD,19 TO 21,94.0,Model A,2012,85 years 11 months,670888.0,441B FERNVALE RD,792441,1.39121038063109,103.874688908059,2025-04-04
201687,2025-04,SENGKANG,4 ROOM,433B,SENGKANG WEST WAY,19 TO 21,93.0,Model A,2014,88 years 07 months,669888.0,433B SENGKANG WEST WAY,792433,1.39388894272879,103.877494624525,2025-04-04
201688,2025-04,SENGKANG,4 ROOM,452B,SENGKANG WEST WAY,07 TO 09,92.0,Model A,2015,89 years 02 months,615000.0,452B SENGKANG WEST WAY,792452,1.39359219975011,103.873975642578,2025-04-04
201692,2025-04,SENGKANG,5 ROOM,338A,ANCHORVALE CRES,10 TO 12,113.0,Improved,2018,92 years 02 months,820000.0,338A ANCHORVALE CRES,541338,1.39926289122119,103.888859316617,2025-04-04
201757,2025-04,SENGKANG,5 ROOM,262D,COMPASSVALE ST,04 TO 06,110.0,Improved,2001,74 years 10 months,718000.0,262D COMPASSVALE ST,544262,1.39424037512497,103.894971589081,2025-04-04
201780,2025-04,SENGKANG,5 ROOM,471B,FERNVALE ST,01 TO 03,113.0,Improved,2016,90 years 06 months,730000.0,471B FERNVALE ST,792471,1.39649875629749,103.880447337309,2025-04-04
201965,2025-04,SERANGOON,5 ROOM,523,SERANGOON NTH AVE 4,07 TO 09,122.0,Improved,1992,66 years 08 months,830888.0,523 SERANGOON NTH AVE 4,550523,1.37301246682554,103.872876048422,2025-04-04
201969,2025-04,SERANGOON,EXECUTIVE,316,SERANGOON AVE 2,01 TO 03,156.0,Maisonette,1984,58 years 09 months,1236000.0,316 SERANGOON AVE 2,550316,1.35301133658634,103.86647177389,2025-04-04
201990,2025-04,TAMPINES,3 ROOM,869A,TAMPINES AVE 8,13 TO 15,67.0,Model A,2015,89 years 03 months,570000.0,869A TAMPINES AVE 8,521869,1.35501799093941,103.93231742743,2025-04-04
202101,2025-04,TAMPINES,4 ROOM,106,SIMEI ST 1,04 TO 06,104.0,Model A,1988,62 years 07 months,678000.0,106 SIMEI ST 1,520106,1.34188521733435,103.950833481196,2025-04-04
202312,2025-04,TAMPINES,4 ROOM,884,TAMPINES ST 83,07 TO 09,107.0,Model A,1988,62 years 03 months,625000.0,884 TAMPINES ST 83,520884,1.35153277057069,103.93280546659,2025-04-04
202499,2025-04,TAMPINES,EXECUTIVE,497D,TAMPINES ST 45,04 TO 06,139.0,Premium Apartment,1996,70 years 03 months,928000.0,497D TAMPINES ST 45,523497,1.35883428878933,103.959075281438,2025-04-04
202517,2025-04,TOA PAYOH,2 ROOM,52,LOR 6 TOA PAYOH,07 TO 09,43.0,2-room,1983,57 years 03 months,300000.0,52 LOR 6 TOA PAYOH,310052,1.33824914332833,103.852481978622,2025-04-04
202906,2025-04,WOODLANDS,4 ROOM,787C,WOODLANDS CRES,07 TO 09,100.0,Model A,1997,71 years 06 months,545000.0,787C WOODLANDS CRES,733787,1.4448677578465,103.801173705124,2025-04-04
203229,2025-04,WOODLANDS,EXECUTIVE,808,WOODLANDS ST 81,07 TO 09,192.0,Apartment,1994,67 years 10 months,1090000.0,808 WOODLANDS ST 81,730808,1.44228123978512,103.78691557368,2025-04-04
203324,2025-04,YISHUN,3 ROOM,165,YISHUN RING RD,13 TO 15,64.0,Simplified,1988,62 years 03 months,418000.0,165 YISHUN RING RD,760165,1.43577180513264,103.831783821967,2025-04-04
203435,2025-04,YISHUN,4 ROOM,430B,YISHUN AVE 11,10 TO 12,92.0,Model A,2015,89 years 09 months,600000.0,430B YISHUN AVE 11,762430,1.42098709730833,103.848612654306,2025-04-04
203491,2025-04,YISHUN,4 ROOM,316A,YISHUN AVE 9,07 TO 09,92.0,Model A,2015,89 years 07 months,615000.0,316A YISHUN AVE 9,761316,1.43335530681195,103.842705084631,2025-04-04
203492,2025-04,YISHUN,4 ROOM,316C,YISHUN AVE 9,01 TO 03,92.0,Model A,2015,89 years 07 months,575000.0,316C YISHUN AVE 9,763316,1.43292306072856,103.843472712009,2025-04-04
203528,2025-04,YISHUN,4 ROOM,242,YISHUN RING RD,01 TO 03,93.0,New Generation,1986,59 years 10 months,530000.0,242 YISHUN RING RD,760242,1.43270791512175,103.840052416236,2025-04-04
203529,2025-04,YISHUN,4 ROOM,312,YISHUN RING RD,01 TO 03,84.0,Simplified,1987,61 years 02 months,466000.0,312 YISHUN RING RD,760312,1.43158235383889,103.8412806199,2025-04-04
203530,2025-04,YISHUN,4 ROOM,448,YISHUN RING RD,10 TO 12,92.0,Model A,2012,86 years 05 months,601888.0,448 YISHUN RING RD,760448,1.42248271677898,103.844903042843,2025-04-04
203535,2025-04,YISHUN,4 ROOM,147,YISHUN ST 11,04 TO 06,91.0,New Generation,1985,59 years 06 months,470000.0,147 YISHUN ST 11,760147,1.4312806628618,103.831829692469,2025-04-04
203633,2025-04,YISHUN,5 ROOM,674B,YISHUN AVE 4,07 TO 09,112.0,Improved,2018,92 years 08 months,730000.0,674B YISHUN AVE 4,762674,1.42107254833692,103.843117058752,2025-04-04
203638,2025-04,YISHUN,5 ROOM,318A,YISHUN AVE 9,04 TO 06,112.0,Improved,2015,89 years 07 months,710000.0,318A YISHUN AVE 9,761318,1.43407449545002,103.843573649375,2025-04-04
197290,2025-04,BEDOK,3 ROOM,412,BEDOK NTH AVE 2,07 TO 09,67.0,New Generation,1979,53 years 02 months,456000.0,412 BEDOK NTH AVE 2,460412,1.32929126082802,103.931090689284,2025-04-07
197344,2025-04,BEDOK,3 ROOM,747A,BEDOK RESERVOIR CRES,04 TO 06,67.0,DBSS,2014,88 years 06 months,650000.0,747A BEDOK RESERVOIR CRES,471747,1.3366395590937,103.921284387946,2025-04-07
197597,2025-04,BISHAN,3 ROOM,403,SIN MING AVE,07 TO 09,64.0,Simplified,1986,60 years 06 months,555828.0,403 SIN MING AVE,570403,1.3628703224303,103.833604034312,2025-04-07
197689,2025-04,BUKIT BATOK,2 ROOM,448B,BT BATOK WEST AVE 9,01 TO 03,47.0,2-room,2019,93 years,330000.0,448B BT BATOK WEST AVE 9,652448,1.35314900034194,103.740846555722,2025-04-07
197751,2025-04,BUKIT BATOK,3 ROOM,536,BT BATOK ST 52,10 TO 12,73.0,Model A,1986,60 years 06 months,435000.0,536 BT BATOK ST 52,650536,1.35551876314657,103.751164489972,2025-04-07
197844,2025-04,BUKIT BATOK,4 ROOM,315,BT BATOK ST 32,04 TO 06,84.0,Simplified,1986,60 years 07 months,482000.0,315 BT BATOK ST 32,650315,1.36009637574567,103.746560963113,2025-04-07
197979,2025-04,BUKIT BATOK,5 ROOM,435C,BT BATOK WEST AVE 5,07 TO 09,113.0,Improved,2020,93 years 11 months,816888.0,435C BT BATOK WEST AVE 5,653435,1.35830193962809,103.739753503555,2025-04-07
198075,2025-04,BUKIT MERAH,3 ROOM,95B,HENDERSON RD,01 TO 03,68.0,Model A,2019,93 years 03 months,628000.0,95B HENDERSON RD,152095,1.28697703899167,103.821558832304,2025-04-07
198238,2025-04,BUKIT MERAH,4 ROOM,68,TELOK BLANGAH HTS,07 TO 09,91.0,New Generation,1978,51 years 10 months,610000.0,68 TELOK BLANGAH HTS,100068,1.27515915779894,103.810138469233,2025-04-07
198239,2025-04,BUKIT MERAH,4 ROOM,70A,TELOK BLANGAH HTS,16 TO 18,93.0,Model A,2017,91 years 02 months,960000.0,70A TELOK BLANGAH HTS,101070,1.27637530976147,103.81137191061,2025-04-07
198372,2025-04,BUKIT PANJANG,4 ROOM,510,JELAPANG RD,10 TO 12,91.0,Model A2,1998,72 years 03 months,562500.0,510 JELAPANG RD,670510,1.38758897243469,103.768982944262,2025-04-07
198532,2025-04,CENTRAL AREA,2 ROOM,10,JLN KUKOH,10 TO 12,53.0,Improved,1971,45 years 04 months,318888.0,10 JLN KUKOH,162010,1.2869738344398,103.839075823483,2025-04-07
198639,2025-04,CHOA CHU KANG,4 ROOM,439,CHOA CHU KANG AVE 4,10 TO 12,104.0,Model A,1993,67 years 03 months,588000.0,439 CHOA CHU KANG AVE 4,680439,1.38372413417485,103.739787430026,2025-04-07
198678,2025-04,CHOA CHU KANG,4 ROOM,672A,CHOA CHU KANG CRES,01 TO 03,105.0,Premium Apartment,2000,74 years,510000.0,672A CHOA CHU KANG CRES,681672,1.4018932058408,103.747364979441,2025-04-07
198694,2025-04,CHOA CHU KANG,4 ROOM,688B,CHOA CHU KANG DR,07 TO 09,90.0,Model A,2002,76 years,508000.0,688B CHOA CHU KANG DR,682688,1.40343593772923,103.75033691367,2025-04-07
198812,2025-04,CHOA CHU KANG,5 ROOM,541,CHOA CHU KANG ST 52,01 TO 03,126.0,Improved,1994,68 years 01 month,640000.0,541 CHOA CHU KANG ST 52,680541,1.39278327502122,103.744321835531,2025-04-07
198879,2025-04,CLEMENTI,3 ROOM,429,CLEMENTI AVE 3,10 TO 12,67.0,New Generation,1978,52 years 03 months,438000.0,429 CLEMENTI AVE 3,120429,1.31291218870832,103.762860973019,2025-04-07
198889,2025-04,CLEMENTI,3 ROOM,304,CLEMENTI AVE 4,10 TO 12,67.0,New Generation,1979,53 years,436000.0,304 CLEMENTI AVE 4,120304,1.3209205726035,103.764859212465,2025-04-07
198890,2025-04,CLEMENTI,3 ROOM,375,CLEMENTI AVE 4,10 TO 12,67.0,New Generation,1980,54 years 07 months,448000.0,375 CLEMENTI AVE 4,120375,1.31849298732441,103.766701647482,2025-04-07
199032,2025-04,GEYLANG,3 ROOM,23,BALAM RD,04 TO 06,60.3,Standard,1967,40 years 11 months,322000.0,23 BALAM RD,370023,1.33097096666446,103.886540431592,2025-04-07
199069,2025-04,GEYLANG,3 ROOM,36,CIRCUIT RD,10 TO 12,63.1,Standard,1971,44 years 11 months,345000.0,36 CIRCUIT RD,370036,1.32902607919001,103.88693079734,2025-04-07
199100,2025-04,GEYLANG,3 ROOM,12,PINE CL,10 TO 12,68.0,New Generation,1981,55 years 04 months,480000.0,12 PINE CL,391012,1.30847854465222,103.882287785645,2025-04-07
199196,2025-04,HOUGANG,2 ROOM,993B,BUANGKOK LINK,01 TO 03,47.0,2-room,2021,94 years 10 months,375000.0,993B BUANGKOK LINK,532993,1.38507802286744,103.882690382052,2025-04-07
199277,2025-04,HOUGANG,3 ROOM,645,HOUGANG AVE 8,04 TO 06,60.0,Improved,1987,60 years 11 months,402000.0,645 HOUGANG AVE 8,530645,1.37175994350777,103.88145598567,2025-04-07
199310,2025-04,HOUGANG,4 ROOM,997A,BUANGKOK CRES,13 TO 15,93.0,Model A,2018,92 years 08 months,680000.0,997A BUANGKOK CRES,531997,1.38504599856502,103.881166649447,2025-04-07
199324,2025-04,HOUGANG,4 ROOM,994C,BUANGKOK LINK,10 TO 12,93.0,Model A,2021,94 years 10 months,650000.0,994C BUANGKOK LINK,536994,1.38545472814646,103.882985586929,2025-04-07
199391,2025-04,HOUGANG,4 ROOM,836,HOUGANG CTRL,13 TO 15,96.0,Model A,1997,71 years 02 months,795000.0,836 HOUGANG CTRL,530836,1.37008344971108,103.890795334762,2025-04-07
199490,2025-04,HOUGANG,5 ROOM,926,HOUGANG ST 91,01 TO 03,120.0,Improved,1998,72 years 05 months,700000.0,926 HOUGANG ST 91,530926,1.37610015874638,103.880942241584,2025-04-07
199574,2025-04,JURONG EAST,4 ROOM,329,JURONG EAST AVE 1,13 TO 15,104.0,Model A,1983,57 years 03 months,542000.0,329 JURONG EAST AVE 1,600329,1.35013988623409,103.729936587391,2025-04-07
199592,2025-04,JURONG EAST,4 ROOM,320,JURONG EAST ST 31,13 TO 15,105.0,Model A,1984,58 years 09 months,568000.0,320 JURONG EAST ST 31,600320,1.34875786021291,103.730708675043,2025-04-07
199683,2025-04,JURONG WEST,3 ROOM,175,BOON LAY DR,04 TO 06,59.0,Improved,1978,52 years 04 months,322000.0,175 BOON LAY DR,640175,1.34668916681369,103.709485323529,2025-04-07
199684,2025-04,JURONG WEST,3 ROOM,180A,BOON LAY DR,07 TO 09,68.0,Model A,2014,88 years 02 months,480000.0,180A BOON LAY DR,641180,1.34761769756975,103.708643921054,2025-04-07
199731,2025-04,JURONG WEST,3 ROOM,457,JURONG WEST ST 41,07 TO 09,73.0,Model A,1984,58 years 02 months,410000.0,457 JURONG WEST ST 41,640457,1.35069822477174,103.720905064522,2025-04-07
199826,2025-04,JURONG WEST,4 ROOM,515,JURONG WEST ST 52,07 TO 09,104.0,Model A,1984,58 years 03 months,590000.0,515 JURONG WEST ST 52,640515,1.34642397230739,103.720898095436,2025-04-07
200135,2025-04,KALLANG/WHAMPOA,3 ROOM,63,KALLANG BAHRU,04 TO 06,65.0,Improved,1974,47 years 10 months,385000.0,63 KALLANG BAHRU,330063,1.32100020851204,103.868321383856,2025-04-07
200172,2025-04,KALLANG/WHAMPOA,3 ROOM,75,WHAMPOA DR,10 TO 12,76.0,Improved,1974,47 years 10 months,435000.0,75 WHAMPOA DR,320075,1.32441875533381,103.858185074994,2025-04-07
200267,2025-04,KALLANG/WHAMPOA,4 ROOM,101,WHAMPOA DR,10 TO 12,91.0,Improved,1974,48 years,507000.0,101 WHAMPOA DR,323101,1.32041710187602,103.853813946402,2025-04-07
200280,2025-04,KALLANG/WHAMPOA,5 ROOM,59C,GEYLANG BAHRU,19 TO 21,120.0,Improved,1998,72 years 09 months,1010000.0,59C GEYLANG BAHRU,332059,1.32221075711137,103.868500280143,2025-04-07
200372,2025-04,PASIR RIS,4 ROOM,416,PASIR RIS DR 6,01 TO 03,105.0,Model A,1989,63 years 09 months,665000.0,416 PASIR RIS DR 6,510416,1.37163660120977,103.955620745818,2025-04-07
200401,2025-04,PASIR RIS,5 ROOM,611,ELIAS RD,04 TO 06,129.0,Improved,1995,69 years 04 months,689000.0,611 ELIAS RD,510611,1.37505768778741,103.942533878557,2025-04-07
200480,2025-04,PASIR RIS,EXECUTIVE,222,PASIR RIS ST 21,01 TO 03,150.0,Apartment,1993,67 years 04 months,835000.0,222 PASIR RIS ST 21,510222,1.37069478705346,103.961797016209,2025-04-07
200486,2025-04,PASIR RIS,EXECUTIVE,508,PASIR RIS ST 52,13 TO 15,148.0,Apartment,1993,67 years 07 months,988000.0,508 PASIR RIS ST 52,510508,1.37614970669375,103.944239093702,2025-04-07
200527,2025-04,PUNGGOL,3 ROOM,209C,PUNGGOL PL,13 TO 15,67.0,Model A,2014,88 years 10 months,550000.0,209C PUNGGOL PL,823209,1.39930949012592,103.900792344556,2025-04-07
200581,2025-04,PUNGGOL,4 ROOM,122B,EDGEDALE PLAINS,01 TO 03,93.0,Model A,2017,91 years 02 months,590000.0,122B EDGEDALE PLAINS,822122,1.39415009117251,103.909595974135,2025-04-07
200611,2025-04,PUNGGOL,4 ROOM,622A,PUNGGOL CTRL,13 TO 15,95.0,Model A,2014,88 years 01 month,710000.0,622A PUNGGOL CTRL,821622,1.39992780139037,103.911046885541,2025-04-07
200671,2025-04,PUNGGOL,4 ROOM,258A,PUNGGOL FIELD,01 TO 03,93.0,Model A,2016,90 years 03 months,628000.0,258A PUNGGOL FIELD,821258,1.40379930905886,103.895988121768,2025-04-07
200718,2025-04,PUNGGOL,4 ROOM,271A,PUNGGOL WALK,10 TO 12,93.0,Premium Apartment,2014,88 years 01 month,760000.0,271A PUNGGOL WALK,821271,1.40374539652235,103.900318867807,2025-04-07
201101,2025-04,SEMBAWANG,3 ROOM,132C,CANBERRA VIEW,10 TO 12,68.0,Model A,2020,94 years 07 months,608000.0,132C CANBERRA VIEW,753132,1.44267376186975,103.8309577035,2025-04-07
201234,2025-04,SEMBAWANG,4 ROOM,132C,CANBERRA VIEW,07 TO 09,95.0,Model A,2020,94 years 07 months,825000.0,132C CANBERRA VIEW,753132,1.44267376186975,103.8309577035,2025-04-07
201311,2025-04,SEMBAWANG,5 ROOM,120C,CANBERRA CRES,10 TO 12,113.0,Improved,2018,92 years,810000.0,120C CANBERRA CRES,753120,1.44707143643003,103.83280231533,2025-04-07
201323,2025-04,SEMBAWANG,5 ROOM,352C,CANBERRA RD,01 TO 03,110.0,Improved,2001,75 years 10 months,632888.0,352C CANBERRA RD,753352,1.44983764720493,103.819822012552,2025-04-07
201420,2025-04,SENGKANG,2 ROOM,447A,JLN KAYU,04 TO 06,47.0,Model A,2013,87 years 08 months,359000.0,447A JLN KAYU,791447,1.3921382852483,103.872490556246,2025-04-07
201444,2025-04,SENGKANG,3 ROOM,353B,ANCHORVALE LANE,16 TO 18,68.0,Model A,2021,94 years 11 months,560000.0,353B ANCHORVALE LANE,542353,1.39434782021906,103.88585684721,2025-04-07
201564,2025-04,SENGKANG,4 ROOM,295C,COMPASSVALE CRES,01 TO 03,89.0,Model A,2002,76 years,535000.0,295C COMPASSVALE CRES,543295,1.39730007931625,103.899988294316,2025-04-07
201587,2025-04,SENGKANG,4 ROOM,209A,COMPASSVALE LANE,13 TO 15,92.0,Model A,2011,85 years 08 months,665000.0,209A COMPASSVALE LANE,541209,1.38359765453194,103.898502660861,2025-04-07
201626,2025-04,SENGKANG,4 ROOM,231,COMPASSVALE WALK,13 TO 15,101.0,Model A,1999,73 years 06 months,610000.0,231 COMPASSVALE WALK,540231,1.38953316865049,103.901395398008,2025-04-07
201672,2025-04,SENGKANG,4 ROOM,453D,FERNVALE RD,13 TO 15,92.0,Model A,2015,89 years 04 months,665888.0,453D FERNVALE RD,794453,1.39341707295426,103.875340178233,2025-04-07
201704,2025-04,SENGKANG,4 ROOM,121A,RIVERVALE DR,07 TO 09,91.0,Model A,2000,74 years 04 months,560000.0,121A RIVERVALE DR,541121,1.38669088303388,103.905111879708,2025-04-07
201853,2025-04,SENGKANG,5 ROOM,155,RIVERVALE CRES,07 TO 09,110.0,Improved,2005,79 years 09 months,650000.0,155 RIVERVALE CRES,540155,1.3906986624878,103.907208774203,2025-04-07
201946,2025-04,SERANGOON,3 ROOM,230,SERANGOON AVE 4,01 TO 03,67.0,New Generation,1985,58 years 11 months,430000.0,230 SERANGOON AVE 4,550230,1.35594945338371,103.869580972459,2025-04-07
201979,2025-04,SERANGOON,4 ROOM,236,SERANGOON AVE 3,04 TO 06,84.0,Simplified,1985,59 years 03 months,641000.0,236 SERANGOON AVE 3,550236,1.35424006743426,103.869821831929,2025-04-07
202167,2025-04,TAMPINES,4 ROOM,148,SIMEI ST 1,01 TO 03,84.0,Simplified,1988,62 years 01 month,572000.0,148 SIMEI ST 1,520148,1.34626694058524,103.955964816441,2025-04-07
202204,2025-04,TAMPINES,4 ROOM,522C,TAMPINES CTRL 7,01 TO 03,93.0,Model A,2015,89 years 06 months,718000.0,522C TAMPINES CTRL 7,523522,1.35800481305316,103.939416135735,2025-04-07
202288,2025-04,TAMPINES,4 ROOM,609B,TAMPINES NTH DR 1,04 TO 06,93.0,Model A,2020,94 years 07 months,732000.0,609B TAMPINES NTH DR 1,522609,1.36361417117643,103.935679916041,2025-04-07
202289,2025-04,TAMPINES,4 ROOM,610C,TAMPINES NTH DR 1,10 TO 12,93.0,Model A,2020,94 years 07 months,785888.0,610C TAMPINES NTH DR 1,523610,1.36441776002022,103.935558340158,2025-04-07
202368,2025-04,TAMPINES,4 ROOM,706,TAMPINES ST 71,07 TO 09,99.0,Model A,1997,71 years 04 months,660888.0,706 TAMPINES ST 71,520706,1.35750385698395,103.937559746526,2025-04-07
202374,2025-04,TAMPINES,4 ROOM,842F,TAMPINES ST 82,10 TO 12,108.0,Model A,1995,69 years 06 months,720000.0,842F TAMPINES ST 82,526842,1.35186480268899,103.937784349764,2025-04-07
202375,2025-04,TAMPINES,4 ROOM,846,TAMPINES ST 82,01 TO 03,103.0,Model A,1986,59 years 10 months,615000.0,846 TAMPINES ST 82,520846,1.35215736918662,103.935923497654,2025-04-07
202507,2025-04,TAMPINES,5 ROOM,432,TAMPINES ST 41,04 TO 06,122.0,Improved,1986,60 years 02 months,742888.0,432 TAMPINES ST 41,520432,1.35887571395227,103.950535549557,2025-04-07
202526,2025-04,TAMPINES,5 ROOM,702,TAMPINES ST 71,07 TO 09,119.0,Improved,1997,71 years 05 months,820000.0,702 TAMPINES ST 71,520702,1.3561725371375,103.937479923002,2025-04-07
202561,2025-04,TAMPINES,EXECUTIVE,334,TAMPINES ST 32,04 TO 06,149.0,Apartment,1996,69 years 10 months,970000.0,334 TAMPINES ST 32,520334,1.35238951465829,103.961041591251,2025-04-07
202604,2025-04,TOA PAYOH,3 ROOM,195,KIM KEAT AVE,01 TO 03,66.0,Improved,1973,47 years 04 months,338000.0,195 KIM KEAT AVE,310195,1.33008102222991,103.858354604112,2025-04-07
202644,2025-04,TOA PAYOH,3 ROOM,51,LOR 6 TOA PAYOH,16 TO 18,63.0,Standard,1983,57 years 03 months,370000.0,51 LOR 6 TOA PAYOH,310051,1.33778337648439,103.852507455855,2025-04-07
202712,2025-04,TOA PAYOH,4 ROOM,15,JOO SENG RD,10 TO 12,106.0,Model A,1984,58 years 01 month,615000.0,15 JOO SENG RD,360015,1.33550132176622,103.880231498548,2025-04-07
202742,2025-04,TOA PAYOH,4 ROOM,191,LOR 4 TOA PAYOH,19 TO 21,84.0,Improved,1974,48 years 04 months,615000.0,191 LOR 4 TOA PAYOH,310191,1.33189327620475,103.851025403234,2025-04-07
202788,2025-04,TOA PAYOH,4 ROOM,264,TOA PAYOH EAST,34 TO 36,93.0,Model A,2019,93 years 09 months,1065000.0,264 TOA PAYOH EAST,310264,1.332464536405,103.855237512058,2025-04-07
202867,2025-04,WOODLANDS,3 ROOM,6,MARSILING DR,01 TO 03,65.0,Improved,1976,49 years 10 months,340000.0,6 MARSILING DR,730006,1.44207297644105,103.776353990531,2025-04-07
202879,2025-04,WOODLANDS,3 ROOM,570B,WOODLANDS AVE 1,10 TO 12,67.0,Model A,2013,87 years 08 months,510000.0,570B WOODLANDS AVE 1,732570,1.43106395485681,103.790454078756,2025-04-07
202912,2025-04,WOODLANDS,3 ROOM,159,WOODLANDS ST 13,10 TO 12,73.0,Model A,1990,64 years 02 months,438000.0,159 WOODLANDS ST 13,730159,1.43367896562385,103.774587099483,2025-04-07
202958,2025-04,WOODLANDS,4 ROOM,724,WOODLANDS AVE 6,07 TO 09,101.0,Model A,1997,71 years 06 months,566000.0,724 WOODLANDS AVE 6,730724,1.44466656494325,103.798713043181,2025-04-07
202970,2025-04,WOODLANDS,4 ROOM,740,WOODLANDS CIRCLE,01 TO 03,102.0,Model A,1997,71 years 07 months,560000.0,740 WOODLANDS CIRCLE,730740,1.44451665994532,103.796298181189,2025-04-07
202971,2025-04,WOODLANDS,4 ROOM,765,WOODLANDS CIRCLE,01 TO 03,90.0,Model A,2003,77 years 04 months,515000.0,765 WOODLANDS CIRCLE,730765,1.44589975238319,103.796914037556,2025-04-07
203116,2025-04,WOODLANDS,4 ROOM,183C,WOODLANDS ST 13,10 TO 12,93.0,Model A,2019,93 years 07 months,705000.0,183C WOODLANDS ST 13,733183,1.43465687984813,103.776726754884,2025-04-07
203176,2025-04,WOODLANDS,5 ROOM,787E,WOODLANDS CRES,04 TO 06,120.0,Improved,1997,71 years 08 months,662000.0,787E WOODLANDS CRES,735787,1.44492134030396,103.80229706643,2025-04-07
203198,2025-04,WOODLANDS,5 ROOM,582,WOODLANDS DR 16,07 TO 09,110.0,Improved,2001,75 years 01 month,641314.0,582 WOODLANDS DR 16,730582,1.43014040629208,103.795835240178,2025-04-07
203282,2025-04,WOODLANDS,5 ROOM,874,WOODLANDS ST 82,07 TO 09,135.0,Model A,1996,70 years,700000.0,874 WOODLANDS ST 82,730874,1.44293234437699,103.7895456612,2025-04-07
203390,2025-04,YISHUN,3 ROOM,321,YISHUN CTRL,04 TO 06,74.0,Model A,1988,61 years 11 months,438000.0,321 YISHUN CTRL,760321,1.42887961053535,103.841528588879,2025-04-07
203417,2025-04,YISHUN,3 ROOM,116,YISHUN RING RD,01 TO 03,74.0,Model A,1983,57 years 03 months,415000.0,116 YISHUN RING RD,760116,1.43502750249052,103.82813490143,2025-04-07
203443,2025-04,YISHUN,3 ROOM,152,YISHUN ST 11,04 TO 06,66.0,New Generation,1985,59 years,410000.0,152 YISHUN ST 11,760152,1.4310397754087,103.834755026459,2025-04-07
203533,2025-04,YISHUN,4 ROOM,771,YISHUN AVE 3,10 TO 12,84.0,Simplified,1985,59 years 07 months,497000.0,771 YISHUN AVE 3,760771,1.42395988584135,103.832607406437,2025-04-07
203561,2025-04,YISHUN,4 ROOM,674A,YISHUN AVE 4,07 TO 09,93.0,Model A,2018,92 years 08 months,617000.0,674A YISHUN AVE 4,761674,1.42064299685012,103.843114007721,2025-04-07
203628,2025-04,YISHUN,4 ROOM,677A,YISHUN RING RD,10 TO 12,93.0,Model A,2018,92 years 07 months,638000.0,677A YISHUN RING RD,761677,1.4219769108036,103.843317344784,2025-04-07
197145,2025-04,ANG MO KIO,3 ROOM,507,ANG MO KIO AVE 8,07 TO 09,67.0,New Generation,1980,54 years 03 months,455000.0,507 ANG MO KIO AVE 8,560507,1.37443139933504,103.850157484705,2025-04-08
197166,2025-04,ANG MO KIO,4 ROOM,308A,ANG MO KIO AVE 1,01 TO 03,94.0,Model A,2012,86 years 06 months,879000.0,308A ANG MO KIO AVE 1,561308,1.36548342757106,103.844084739929,2025-04-08
197179,2025-04,ANG MO KIO,4 ROOM,438,ANG MO KIO AVE 10,07 TO 09,92.0,New Generation,1979,52 years 10 months,540000.0,438 ANG MO KIO AVE 10,560438,1.3669708169506,103.853906591778,2025-04-08
197191,2025-04,ANG MO KIO,4 ROOM,209,ANG MO KIO AVE 3,01 TO 03,91.0,New Generation,1977,51 years 01 month,498888.0,209 ANG MO KIO AVE 3,560209,1.36897079641509,103.843284524871,2025-04-08
197275,2025-04,BEDOK,2 ROOM,535,BEDOK NTH ST 3,01 TO 03,45.0,Improved,1986,59 years 10 months,335000.0,535 BEDOK NTH ST 3,460535,1.33270278688381,103.923456730636,2025-04-08
197311,2025-04,BEDOK,3 ROOM,107,BEDOK NTH RD,10 TO 12,67.0,New Generation,1977,51 years 04 months,450000.0,107 BEDOK NTH RD,460107,1.33231740745783,103.936301267285,2025-04-08
197312,2025-04,BEDOK,3 ROOM,108,BEDOK NTH RD,07 TO 09,81.0,New Generation,1977,51 years 04 months,510000.0,108 BEDOK NTH RD,460108,1.33274009226511,103.936223519694,2025-04-08
197346,2025-04,BEDOK,3 ROOM,545,BEDOK NTH ST 3,04 TO 06,68.0,New Generation,1980,54 years 02 months,430000.0,545 BEDOK NTH ST 3,460545,1.3300514240201,103.924118031423,2025-04-08
197351,2025-04,BEDOK,3 ROOM,84,BEDOK NTH ST 4,01 TO 03,67.0,New Generation,1978,52 years 01 month,400000.0,84 BEDOK NTH ST 4,460084,1.33178245077456,103.939208398976,2025-04-08
197386,2025-04,BEDOK,3 ROOM,18,BEDOK STH RD,10 TO 12,65.0,Improved,1976,49 years 10 months,408000.0,18 BEDOK STH RD,460018,1.32062504871279,103.934734222428,2025-04-08
197412,2025-04,BEDOK,4 ROOM,220A,BEDOK CTRL,01 TO 03,97.0,Model A,2010,84 years 02 months,820000.0,220A BEDOK CTRL,461220,1.32569266983592,103.934602365058,2025-04-08
197517,2025-04,BEDOK,4 ROOM,43,CHAI CHEE ST,07 TO 09,93.0,New Generation,1980,54 years 02 months,555000.0,43 CHAI CHEE ST,461043,1.32834668503077,103.925654810377,2025-04-08
197598,2025-04,BEDOK,EXECUTIVE,108,LENGKONG TIGA,01 TO 03,154.0,Maisonette,1989,62 years 11 months,1196000.0,108 LENGKONG TIGA,410108,1.32456370966495,103.91013096847,2025-04-08
197853,2025-04,BUKIT BATOK,4 ROOM,370,BT BATOK ST 31,01 TO 03,84.0,Simplified,1985,59 years 08 months,495000.0,370 BT BATOK ST 31,650370,1.35995741711977,103.749307337606,2025-04-08
197956,2025-04,BUKIT BATOK,4 ROOM,460A,BT BATOK WEST AVE 9,16 TO 18,93.0,Model A,2020,94 years 02 months,720888.0,460A BT BATOK WEST AVE 9,651460,1.35426046045608,103.739309747692,2025-04-08
198046,2025-04,BUKIT MERAH,1 ROOM,7,TELOK BLANGAH CRES,04 TO 06,31.0,Improved,1975,49 years,270000.0,7 TELOK BLANGAH CRES,90007,1.27836137310785,103.819384010497,2025-04-08
198112,2025-04,BUKIT MERAH,3 ROOM,37,JLN RUMAH TINGGI,07 TO 09,53.0,Standard,1969,43 years 04 months,339000.0,37 JLN RUMAH TINGGI,150037,1.28922928913172,103.809193412567,2025-04-08
198149,2025-04,BUKIT MERAH,3 ROOM,32,TELOK BLANGAH RISE,04 TO 06,59.0,Improved,1976,50 years 02 months,347000.0,32 TELOK BLANGAH RISE,90032,1.27313105297407,103.821662863346,2025-04-08
198158,2025-04,BUKIT MERAH,3 ROOM,93A,TELOK BLANGAH ST 31,10 TO 12,68.0,Model A,2018,92 years 09 months,733000.0,93A TELOK BLANGAH ST 31,101093,1.27532809461587,103.807323119129,2025-04-08
198166,2025-04,BUKIT MERAH,4 ROOM,8B,BOON TIONG RD,04 TO 06,91.0,Model A,2005,79 years 07 months,925000.0,8B BOON TIONG RD,165008,1.2870169493471,103.830303346649,2025-04-08
198228,2025-04,BUKIT MERAH,4 ROOM,26B,JLN MEMBINA,13 TO 15,85.0,Model A,2009,82 years 10 months,990000.0,26B JLN MEMBINA,165026,1.28309207069724,103.825592376594,2025-04-08
198242,2025-04,BUKIT MERAH,4 ROOM,119D,KIM TIAN RD,07 TO 09,87.0,Model A,2002,76 years 07 months,885000.0,119D KIM TIAN RD,164119,1.2819459836123,103.827911093868,2025-04-08
198247,2025-04,BUKIT MERAH,4 ROOM,75A,REDHILL RD,04 TO 06,100.0,Model A,2005,79 years 09 months,935000.0,75A REDHILL RD,151075,1.28805315705423,103.815277070461,2025-04-08
198264,2025-04,BUKIT MERAH,4 ROOM,59,TELOK BLANGAH HTS,04 TO 06,92.0,New Generation,1976,50 years 06 months,615000.0,59 TELOK BLANGAH HTS,100059,1.2753534329115,103.813588303131,2025-04-08
198265,2025-04,BUKIT MERAH,4 ROOM,70C,TELOK BLANGAH HTS,19 TO 21,93.0,Model A,2017,91 years 02 months,1000000.0,70C TELOK BLANGAH HTS,103070,1.2759961853765,103.810862988227,2025-04-08
198285,2025-04,BUKIT MERAH,5 ROOM,9B,BOON TIONG RD,04 TO 06,112.0,Improved,2016,89 years 10 months,1345000.0,9B BOON TIONG RD,163009,1.28681417822795,103.828928312802,2025-04-08
198389,2025-04,BUKIT PANJANG,4 ROOM,163,GANGSA RD,01 TO 03,102.0,Model A,1998,72 years 02 months,650000.0,163 GANGSA RD,670163,1.37626324137774,103.764450950694,2025-04-08
198401,2025-04,BUKIT PANJANG,4 ROOM,527,JELAPANG RD,01 TO 03,103.0,Model A,1998,72 years 07 months,500000.0,527 JELAPANG RD,670527,1.38621049183084,103.76511260732,2025-04-08
198443,2025-04,BUKIT PANJANG,4 ROOM,456,SEGAR RD,01 TO 03,93.0,Premium Apartment,2012,86 years 08 months,580000.0,456 SEGAR RD,670456,1.38754537018879,103.770442353455,2025-04-08
198471,2025-04,BUKIT PANJANG,5 ROOM,609,BT PANJANG RING RD,16 TO 18,111.0,Improved,2001,75 years 09 months,730000.0,609 BT PANJANG RING RD,670609,1.38285734125021,103.762010135941,2025-04-08
198493,2025-04,BUKIT PANJANG,5 ROOM,176,LOMPANG RD,04 TO 06,121.0,Improved,1997,71 years 07 months,860000.0,176 LOMPANG RD,670176,1.37924529892586,103.765881569885,2025-04-08
198564,2025-04,BUKIT TIMAH,EXECUTIVE,6,TOH YI DR,07 TO 09,150.0,Maisonette,1989,63 years 04 months,1418000.0,6 TOH YI DR,590006,1.33777302768485,103.775130712626,2025-04-08
198639,2025-04,CHOA CHU KANG,4 ROOM,202,CHOA CHU KANG AVE 1,07 TO 09,113.0,Model A,1989,63 years 09 months,570000.0,202 CHOA CHU KANG AVE 1,680202,1.3818369774308,103.74946480804,2025-04-08
198864,2025-04,CHOA CHU KANG,5 ROOM,817B,KEAT HONG LINK,19 TO 21,112.0,Improved,2017,91 years 06 months,780000.0,817B KEAT HONG LINK,682817,1.37708774602652,103.748768050663,2025-04-08
198865,2025-04,CHOA CHU KANG,5 ROOM,817C,KEAT HONG LINK,16 TO 18,112.0,Improved,2017,91 years 06 months,702999.0,817C KEAT HONG LINK,683817,1.37756652387037,103.748989532974,2025-04-08
198869,2025-04,CHOA CHU KANG,5 ROOM,112,TECK WHYE LANE,04 TO 06,121.0,Improved,1989,63 years,610000.0,112 TECK WHYE LANE,680112,1.37748545136822,103.751921303308,2025-04-08
198916,2025-04,CLEMENTI,3 ROOM,430,CLEMENTI AVE 3,07 TO 09,67.0,New Generation,1979,53 years 07 months,455888.0,430 CLEMENTI AVE 3,120430,1.31329277085705,103.762553042236,2025-04-08
199017,2025-04,CLEMENTI,4 ROOM,728,CLEMENTI WEST ST 2,10 TO 12,93.0,New Generation,1980,54 years 05 months,590000.0,728 CLEMENTI WEST ST 2,120728,1.30520206759029,103.763833368922,2025-04-08
199108,2025-04,GEYLANG,3 ROOM,43,CIRCUIT RD,01 TO 03,52.0,Standard,1971,44 years 10 months,320000.0,43 CIRCUIT RD,370043,1.32648228290473,103.885544901533,2025-04-08
199120,2025-04,GEYLANG,3 ROOM,19,EUNOS CRES,07 TO 09,76.0,Improved,1977,51 years 02 months,460000.0,19 EUNOS CRES,400019,1.32427583956643,103.903205459225,2025-04-08
199255,2025-04,HOUGANG,3 ROOM,112,HOUGANG AVE 1,04 TO 06,82.0,New Generation,1981,55 years 09 months,465000.0,112 HOUGANG AVE 1,530112,1.35442181063898,103.888557768191,2025-04-08
199318,2025-04,HOUGANG,3 ROOM,652,HOUGANG AVE 8,01 TO 03,60.0,Improved,1988,62 years 02 months,438000.0,652 HOUGANG AVE 8,530652,1.37240804310722,103.881598248704,2025-04-08
199319,2025-04,HOUGANG,3 ROOM,658,HOUGANG AVE 8,04 TO 06,74.0,Model A,1987,61 years 02 months,500000.0,658 HOUGANG AVE 8,530658,1.3733793738112,103.882388337974,2025-04-08
199367,2025-04,HOUGANG,4 ROOM,994A,BUANGKOK LINK,13 TO 15,93.0,Model A,2021,94 years 10 months,668000.0,994A BUANGKOK LINK,531994,1.38562199941938,103.883768015852,2025-04-08
199382,2025-04,HOUGANG,4 ROOM,453,HOUGANG AVE 10,01 TO 03,104.0,Model A,1992,66 years 07 months,590000.0,453 HOUGANG AVE 10,530453,1.3784780458325,103.895891713359,2025-04-08
199515,2025-04,HOUGANG,5 ROOM,670,HOUGANG AVE 8,01 TO 03,122.0,Improved,1988,62 years 02 months,645000.0,670 HOUGANG AVE 8,530670,1.37302689577235,103.884773194279,2025-04-08
199586,2025-04,JURONG EAST,3 ROOM,210,JURONG EAST ST 21,07 TO 09,82.0,New Generation,1983,57 years 03 months,490000.0,210 JURONG EAST ST 21,600210,1.33889493784685,103.73855509854,2025-04-08
199587,2025-04,JURONG EAST,3 ROOM,211,JURONG EAST ST 21,04 TO 06,67.0,New Generation,1983,57 years 01 month,435000.0,211 JURONG EAST ST 21,600211,1.33866911059386,103.740292528065,2025-04-08
199639,2025-04,JURONG EAST,4 ROOM,319,JURONG EAST ST 31,10 TO 12,104.0,Model A,1984,58 years 04 months,554000.0,319 JURONG EAST ST 31,600319,1.34798942321199,103.7304582035,2025-04-08
199725,2025-04,JURONG WEST,3 ROOM,217B,BOON LAY AVE,10 TO 12,68.0,Model A,2018,92 years 04 months,523000.0,217B BOON LAY AVE,642217,1.34972661567521,103.710830462207,2025-04-08
199824,2025-04,JURONG WEST,4 ROOM,217B,BOON LAY AVE,07 TO 09,94.0,Model A,2018,92 years 04 months,630000.0,217B BOON LAY AVE,642217,1.34972661567521,103.710830462207,2025-04-08
199835,2025-04,JURONG WEST,4 ROOM,140D,CORPORATION DR,07 TO 09,93.0,Model A,2019,93 years 03 months,688000.0,140D CORPORATION DR,614140,1.32759130033551,103.724631921446,2025-04-08
199875,2025-04,JURONG WEST,4 ROOM,412,JURONG WEST ST 42,01 TO 03,103.0,Model A,1985,59 years 03 months,458000.0,412 JURONG WEST ST 42,640412,1.35325102149052,103.726140256506,2025-04-08
199989,2025-04,JURONG WEST,5 ROOM,198,BOON LAY DR,10 TO 12,121.0,Standard,1976,50 years 08 months,585000.0,198 BOON LAY DR,640198,1.3444211304079,103.714343745983,2025-04-08
200067,2025-04,JURONG WEST,5 ROOM,673C,JURONG WEST ST 65,13 TO 15,110.0,Improved,2002,76 years 10 months,612000.0,673C JURONG WEST ST 65,643673,1.34471213524955,103.701313082539,2025-04-08
200099,2025-04,JURONG WEST,5 ROOM,989A,JURONG WEST ST 93,13 TO 15,114.0,Premium Apartment,2008,82 years 05 months,660000.0,989A JURONG WEST ST 93,641989,1.33597335245081,103.694567800488,2025-04-08
200232,2025-04,KALLANG/WHAMPOA,3 ROOM,34,WHAMPOA WEST,01 TO 03,68.0,Improved,1972,45 years 10 months,435000.0,34 WHAMPOA WEST,330034,1.32050169556608,103.863341271367,2025-04-08
200238,2025-04,KALLANG/WHAMPOA,4 ROOM,38B,BENDEMEER RD,16 TO 18,92.0,Model A,2012,86 years 02 months,938000.0,38B BENDEMEER RD,332038,1.32053258273429,103.866795494049,2025-04-08
200491,2025-04,PASIR RIS,5 ROOM,273,PASIR RIS ST 21,07 TO 09,126.0,Improved,1994,68 years 01 month,690000.0,273 PASIR RIS ST 21,510273,1.36484627527981,103.964113174726,2025-04-08
200598,2025-04,PUNGGOL,3 ROOM,261A,PUNGGOL WAY,10 TO 12,68.0,Model A,2016,90 years 03 months,548000.0,261A PUNGGOL WAY,821261,1.40596991489125,103.896803290622,2025-04-08
200656,2025-04,PUNGGOL,4 ROOM,614A,EDGEFIELD PLAINS,01 TO 03,92.0,Model A,2012,86 years 09 months,615000.0,614A EDGEFIELD PLAINS,821614,1.40358421163654,103.909264059421,2025-04-08
200709,2025-04,PUNGGOL,4 ROOM,612D,PUNGGOL DR,10 TO 12,93.0,Model A,2012,86 years 09 months,698000.0,612D PUNGGOL DR,824612,1.40472652611435,103.907623552659,2025-04-08
200710,2025-04,PUNGGOL,4 ROOM,665C,PUNGGOL DR,16 TO 18,93.0,Premium Apartment,2016,89 years 11 months,745000.0,665C PUNGGOL DR,823665,1.40149164608042,103.914459128885,2025-04-08
200711,2025-04,PUNGGOL,4 ROOM,676C,PUNGGOL DR,01 TO 03,93.0,Premium Apartment,2016,90 years 06 months,615000.0,676C PUNGGOL DR,823676,1.40533143328057,103.910586805301,2025-04-08
200771,2025-04,PUNGGOL,4 ROOM,195E,PUNGGOL RD,04 TO 06,90.0,Premium Apartment,2007,81 years 05 months,583000.0,195E PUNGGOL RD,825195,1.40171799238214,103.907177256788,2025-04-08
200793,2025-04,PUNGGOL,4 ROOM,266D,PUNGGOL WAY,04 TO 06,92.0,Model A,2015,89 years 03 months,665000.0,266D PUNGGOL WAY,824266,1.40493960067331,103.89803677792,2025-04-08
200815,2025-04,PUNGGOL,4 ROOM,325B,SUMANG WALK,10 TO 12,93.0,Premium Apartment,2020,93 years 10 months,680000.0,325B SUMANG WALK,822325,1.41312136591979,103.897927310379,2025-04-08
200955,2025-04,QUEENSTOWN,3 ROOM,53,C'WEALTH DR,25 TO 27,63.0,Model A,2015,88 years 11 months,785000.0,53 C'WEALTH DR,142053,1.30205878257013,103.796581739102,2025-04-08
201041,2025-04,QUEENSTOWN,4 ROOM,79,DAWSON RD,16 TO 18,88.0,Model A,2020,94 years 08 months,1088000.0,79 DAWSON RD,141079,1.29459083160081,103.810326636243,2025-04-08
201225,2025-04,SEMBAWANG,4 ROOM,311,CANBERRA RD,10 TO 12,101.0,Model A,1998,72 years 08 months,583000.0,311 CANBERRA RD,750311,1.44631806773829,103.822538328492,2025-04-08
201303,2025-04,SEMBAWANG,4 ROOM,104C,CANBERRA ST,07 TO 09,93.0,Model A,2018,92 years 04 months,610000.0,104C CANBERRA ST,753104,1.44970999451163,103.831775965127,2025-04-08
201467,2025-04,SEMBAWANG,EXECUTIVE,351D,CANBERRA RD,01 TO 03,126.0,Apartment,2001,75 years 09 months,733000.0,351D CANBERRA RD,754351,1.45124006211956,103.819498420242,2025-04-08
201509,2025-04,SENGKANG,2 ROOM,450C,SENGKANG WEST WAY,10 TO 12,46.0,Model A,2014,88 years 04 months,365000.0,450C SENGKANG WEST WAY,793450,1.39381453106764,103.873364255801,2025-04-08
201593,2025-04,SENGKANG,4 ROOM,353A,ANCHORVALE LANE,10 TO 12,93.0,Model A,2021,94 years 11 months,700000.0,353A ANCHORVALE LANE,541353,1.39380650147896,103.885615916234,2025-04-08
201782,2025-04,SENGKANG,4 ROOM,122E,RIVERVALE DR,01 TO 03,90.0,Model A,2000,74 years 04 months,530000.0,122E RIVERVALE DR,545122,1.38795724986826,103.905852165491,2025-04-08
201800,2025-04,SENGKANG,4 ROOM,202C,SENGKANG EAST RD,04 TO 06,90.0,Model A,2001,75 years 02 months,555000.0,202C SENGKANG EAST RD,543202,1.38753228222895,103.892967111261,2025-04-08
201956,2025-04,SENGKANG,5 ROOM,120B,RIVERVALE DR,07 TO 09,121.0,Premium Apartment,2001,75 years,715000.0,120B RIVERVALE DR,542120,1.38579818238123,103.904394269204,2025-04-08
202022,2025-04,SERANGOON,3 ROOM,313,SERANGOON AVE 2,01 TO 03,67.0,New Generation,1985,59 years 01 month,475000.0,313 SERANGOON AVE 2,550313,1.35323929752374,103.865249340249,2025-04-08
202039,2025-04,SERANGOON,3 ROOM,147,SERANGOON NTH AVE 1,10 TO 12,64.0,Simplified,1988,62 years 05 months,453000.0,147 SERANGOON NTH AVE 1,550147,1.36847950992102,103.872662860362,2025-04-08
202146,2025-04,TAMPINES,3 ROOM,601D,TAMPINES AVE 9,13 TO 15,68.0,Model A,2020,94 years,608888.0,601D TAMPINES AVE 9,524601,1.36137294343434,103.936587995929,2025-04-08
202171,2025-04,TAMPINES,3 ROOM,111,TAMPINES ST 11,07 TO 09,78.0,Model A,1984,58 years 03 months,490000.0,111 TAMPINES ST 11,521111,1.34691471378463,103.947416464642,2025-04-08
202261,2025-04,TAMPINES,4 ROOM,902,TAMPINES AVE 4,04 TO 06,104.0,Model A,1984,58 years 04 months,645000.0,902 TAMPINES AVE 4,520902,1.35128036439795,103.939195191948,2025-04-08
202383,2025-04,TAMPINES,4 ROOM,104,TAMPINES ST 11,04 TO 06,104.0,Model A,1982,56 years 07 months,600000.0,104 TAMPINES ST 11,520104,1.34720576651075,103.946641750013,2025-04-08
202581,2025-04,TAMPINES,5 ROOM,279,TAMPINES ST 22,04 TO 06,132.0,Model A,1985,58 years 10 months,668000.0,279 TAMPINES ST 22,520279,1.34629229402625,103.951686109789,2025-04-08
202583,2025-04,TAMPINES,5 ROOM,229,TAMPINES ST 23,01 TO 03,121.0,Improved,1985,59 years 02 months,755000.0,229 TAMPINES ST 23,521229,1.35593143453856,103.953944534569,2025-04-08
202626,2025-04,TAMPINES,5 ROOM,840,TAMPINES ST 82,10 TO 12,122.0,Improved,1986,59 years 11 months,700000.0,840 TAMPINES ST 82,520840,1.35114217456369,103.935616863987,2025-04-08
202754,2025-04,TOA PAYOH,3 ROOM,234,LOR 8 TOA PAYOH,04 TO 06,65.0,Improved,1976,50 years 06 months,360000.0,234 LOR 8 TOA PAYOH,310234,1.33860148626926,103.857914069837,2025-04-08
202895,2025-04,TOA PAYOH,5 ROOM,16,JOO SENG RD,16 TO 18,132.0,Model A,1984,57 years 10 months,830000.0,16 JOO SENG RD,360016,1.33647717186602,103.880345921024,2025-04-08
