_id,month,town,flat_type,block,street_name,storey_range,floor_area_sqm,flat_model,lease_commence_date,remaining_lease,resale_price,address,postal,latitude,longitude,_ts
197048,2025-04,ANG MO KIO,3 ROOM,444,ANG MO KIO AVE 10,01 TO 03,67.0,New Generation,1979,53 years 05 months,390000.0,444 ANG MO KIO AVE 10,560444,1.36660045321147,103.855578790668,2025-04-02
197082,2025-04,ANG MO KIO,3 ROOM,302,ANG MO KIO AVE 3,04 TO 06,73.0,New Generation,1978,52 years 01 month,490088.0,302 ANG MO KIO AVE 3,560302,1.36708983179046,103.845660199054,2025-04-02
197083,2025-04,ANG MO KIO,3 ROOM,570,ANG MO KIO AVE 3,07 TO 09,67.0,New Generation,1979,53 years 03 months,425000.0,570 ANG MO KIO AVE 3,560570,1.3697435855576,103.856023138277,2025-04-02
197104,2025-04,ANG MO KIO,3 ROOM,631,ANG MO KIO AVE 4,10 TO 12,67.0,New Generation,1985,58 years 11 months,468000.0,631 ANG MO KIO AVE 4,560631,1.3795572819161,103.840735651035,2025-04-02
197127,2025-04,ANG MO KIO,3 ROOM,533,ANG MO KIO AVE 5,10 TO 12,82.0,New Generation,1980,54 years,500000.0,533 ANG MO KIO AVE 5,560533,1.37416923724326,103.853001920124,2025-04-02
197141,2025-04,ANG MO KIO,3 ROOM,625,ANG MO KIO AVE 9,04 TO 06,68.0,New Generation,1980,54 years 07 months,380000.0,625 ANG MO KIO AVE 9,560625,1.38219867741921,103.841211533475,2025-04-02
197210,2025-04,ANG MO KIO,4 ROOM,354,ANG MO KIO ST 32,19 TO 21,90.0,Model A,2001,75 years 07 months,790000.0,354 ANG MO KIO ST 32,560354,1.3638775246776,103.85202861388,2025-04-02
197214,2025-04,ANG MO KIO,4 ROOM,455B,ANG MO KIO ST 44,28 TO 30,93.0,Model A,2018,92 years 01 month,980000.0,455B ANG MO KIO ST 44,562455,1.36833017912554,103.858495667837,2025-04-02
197232,2025-04,ANG MO KIO,5 ROOM,551,ANG MO KIO AVE 10,19 TO 21,118.0,Improved,1981,54 years 10 months,740000.0,551 ANG MO KIO AVE 10,560551,1.37392862005901,103.858665713793,2025-04-02
197242,2025-04,ANG MO KIO,5 ROOM,315B,ANG MO KIO ST 31,25 TO 27,110.0,Improved,2006,79 years 11 months,1025000.0,315B ANG MO KIO ST 31,563315,1.36402757273373,103.847478724527,2025-04-02
197448,2025-04,BEDOK,4 ROOM,722,BEDOK RESERVOIR RD,13 TO 15,111.0,Model A,1984,58 years 04 months,550000.0,722 BEDOK RESERVOIR RD,470722,1.33663699329345,103.928207774481,2025-04-02
197464,2025-04,BEDOK,4 ROOM,7,BEDOK STH AVE 2,04 TO 06,82.0,Improved,1976,49 years 10 months,475000.0,7 BEDOK STH AVE 2,460007,1.32281544267372,103.93545524391,2025-04-02
197588,2025-04,BISHAN,4 ROOM,234,BISHAN ST 22,10 TO 12,106.0,Model A,1992,66 years 02 months,920000.0,234 BISHAN ST 22,570234,1.35837057780719,103.846091355463,2025-04-02
197649,2025-04,BUKIT BATOK,2 ROOM,438C,BT BATOK WEST AVE 8,01 TO 03,38.0,Model A,2020,93 years 11 months,330000.0,438C BT BATOK WEST AVE 8,653438,1.35775731757846,103.739408616622,2025-04-02
197664,2025-04,BUKIT BATOK,3 ROOM,229,BT BATOK EAST AVE 3,04 TO 06,67.0,New Generation,1985,59 years 01 month,405000.0,229 BT BATOK EAST AVE 3,650229,1.34827660376884,103.754680867021,2025-04-02
197705,2025-04,BUKIT BATOK,3 ROOM,341,BT BATOK ST 34,10 TO 12,73.0,Model A,1986,60 years 01 month,450000.0,341 BT BATOK ST 34,650341,1.36280451951487,103.749157203985,2025-04-02
197848,2025-04,BUKIT BATOK,4 ROOM,453A,BT BATOK WEST AVE 6,19 TO 21,93.0,Model A,2019,93 years,678888.0,453A BT BATOK WEST AVE 6,651453,1.35227488305445,103.742253260513,2025-04-02
197997,2025-04,BUKIT MERAH,3 ROOM,110,BT PURMEI RD,10 TO 12,75.0,Model A,1984,58 years 06 months,520000.0,110 BT PURMEI RD,90110,1.27380415706758,103.827057699596,2025-04-02
198046,2025-04,BUKIT MERAH,3 ROOM,16,TAMAN HO SWEE,07 TO 09,54.0,Standard,1970,43 years 11 months,360000.0,16 TAMAN HO SWEE,163016,1.2880016960752,103.831614592325,2025-04-02
198056,2025-04,BUKIT MERAH,3 ROOM,5,TELOK BLANGAH CRES,16 TO 18,75.0,Improved,1983,57 years 03 months,464000.0,5 TELOK BLANGAH CRES,90005,1.27872402905423,103.819220384802,2025-04-02
198088,2025-04,BUKIT MERAH,4 ROOM,10A,BOON TIONG RD,16 TO 18,92.0,Model A,2016,89 years 11 months,1200000.0,10A BOON TIONG RD,160010,1.28635847107695,103.82962615571,2025-04-02
198115,2025-04,BUKIT MERAH,4 ROOM,105A,DEPOT RD,04 TO 06,92.0,Model A,2017,91 years 08 months,800000.0,105A DEPOT RD,101105,1.28107116546835,103.811405730352,2025-04-02
198159,2025-04,BUKIT MERAH,4 ROOM,43,LENGKOK BAHRU,01 TO 03,84.0,Simplified,1986,60 years 03 months,650000.0,43 LENGKOK BAHRU,150043,1.28695540244624,103.811000756246,2025-04-02
198246,2025-04,BUKIT PANJANG,3 ROOM,118,PENDING RD,01 TO 03,73.0,Model A,1988,62 years 02 months,412000.0,118 PENDING RD,670118,1.37680420349222,103.768463736662,2025-04-02
198280,2025-04,BUKIT PANJANG,4 ROOM,437,FAJAR RD,01 TO 03,100.0,Model A,1997,71 years 05 months,555000.0,437 FAJAR RD,670437,1.38250957258766,103.769548068869,2025-04-02
198357,2025-04,BUKIT PANJANG,4 ROOM,627,SENJA RD,04 TO 06,90.0,Premium Apartment,2004,78 years 08 months,555888.0,627 SENJA RD,670627,1.38553502172905,103.759378313644,2025-04-02
198358,2025-04,BUKIT PANJANG,4 ROOM,636B,SENJA RD,25 TO 27,92.0,Model A,2015,89 years 09 months,690000.0,636B SENJA RD,672636,1.38762470759976,103.758331445094,2025-04-02
198378,2025-04,BUKIT PANJANG,5 ROOM,504,JELAPANG RD,19 TO 21,123.0,Improved,1998,71 years 10 months,760000.0,504 JELAPANG RD,670504,1.3847322385941,103.766932853057,2025-04-02
198462,2025-04,CENTRAL AREA,3 ROOM,335A,SMITH ST,07 TO 09,60.0,Improved,1984,58 years,500000.0,335A SMITH ST,51335,1.28211630828089,103.842845624261,2025-04-02
198483,2025-04,CENTRAL AREA,4 ROOM,663,BUFFALO RD,16 TO 18,91.0,Improved,1982,56 years 02 months,585000.0,663 BUFFALO RD,210663,1.30568031708633,103.850857724971,2025-04-02
198502,2025-04,CHOA CHU KANG,2 ROOM,166B,TECK WHYE CRES,10 TO 12,47.0,2-room,2015,88 years 11 months,305000.0,166B TECK WHYE CRES,682166,1.38315989308266,103.753400918803,2025-04-02
198548,2025-04,CHOA CHU KANG,4 ROOM,455,CHOA CHU KANG AVE 4,16 TO 18,104.0,Premium Apartment,2000,74 years 02 months,555000.0,455 CHOA CHU KANG AVE 4,680455,1.37942324084484,103.735183712105,2025-04-02
198689,2025-04,CHOA CHU KANG,5 ROOM,223,CHOA CHU KANG CTRL,01 TO 03,122.0,Improved,1993,67 years 03 months,630000.0,223 CHOA CHU KANG CTRL,680223,1.38148413412097,103.744533459829,2025-04-02
198711,2025-04,CHOA CHU KANG,5 ROOM,567,CHOA CHU KANG ST 52,04 TO 06,129.0,Improved,1995,69 years 09 months,658000.0,567 CHOA CHU KANG ST 52,680567,1.39513213569157,103.745875286592,2025-04-02
198814,2025-04,CLEMENTI,3 ROOM,714,CLEMENTI WEST ST 2,04 TO 06,67.0,New Generation,1980,54 years 08 months,375000.0,714 CLEMENTI WEST ST 2,120714,1.30430341306691,103.761682084014,2025-04-02
199110,2025-04,HOUGANG,3 ROOM,24,HOUGANG AVE 3,13 TO 15,67.0,New Generation,1978,52 years 02 months,415000.0,24 HOUGANG AVE 3,530024,1.36551226123746,103.892085472745,2025-04-02
199114,2025-04,HOUGANG,3 ROOM,682,HOUGANG AVE 4,04 TO 06,64.0,Simplified,1989,63 years 05 months,440000.0,682 HOUGANG AVE 4,530682,1.37361830380888,103.885748856217,2025-04-02
199188,2025-04,HOUGANG,4 ROOM,988B,BUANGKOK GREEN,10 TO 12,93.0,Model A,2015,88 years 11 months,668000.0,988B BUANGKOK GREEN,532988,1.37989436347789,103.877406233754,2025-04-02
199245,2025-04,HOUGANG,4 ROOM,676,HOUGANG AVE 8,10 TO 12,104.0,Model A,1986,60 years 08 months,660000.0,676 HOUGANG AVE 8,530676,1.37153528573758,103.884223176926,2025-04-02
199253,2025-04,HOUGANG,4 ROOM,964,HOUGANG AVE 9,04 TO 06,100.0,Model A,1999,73 years 06 months,620000.0,964 HOUGANG AVE 9,530964,1.37715825014895,103.87752355745,2025-04-02
199279,2025-04,HOUGANG,4 ROOM,942,HOUGANG ST 92,01 TO 03,102.0,Model A,1998,72 years 07 months,555888.0,942 HOUGANG ST 92,530942,1.37328587053884,103.880413624286,2025-04-02
199299,2025-04,HOUGANG,4 ROOM,364B,UPP SERANGOON RD,04 TO 06,92.0,Model A,2018,92 years,798000.0,364B UPP SERANGOON RD,532364,1.37051434802161,103.897132658546,2025-04-02
199350,2025-04,HOUGANG,5 ROOM,921,HOUGANG ST 91,07 TO 09,120.0,Improved,1998,72 years 01 month,738000.0,921 HOUGANG ST 91,530921,1.37639888861394,103.884100743983,2025-04-02
199366,2025-04,HOUGANG,EXECUTIVE,430,HOUGANG AVE 6,04 TO 06,148.0,Maisonette,1989,63 years 01 month,1055000.0,430 HOUGANG AVE 6,530430,1.37532106170398,103.893261128732,2025-04-02
199551,2025-04,JURONG WEST,3 ROOM,211,BOON LAY PL,22 TO 24,65.0,Improved,1976,50 years 09 months,360000.0,211 BOON LAY PL,640211,1.34824122465841,103.7140978842,2025-04-02
199552,2025-04,JURONG WEST,3 ROOM,150A,CORPORATION DR,07 TO 09,68.0,Model A,2019,93 years 03 months,490000.0,150A CORPORATION DR,611150,1.32675346321679,103.722161196654,2025-04-02
199611,2025-04,JURONG WEST,3 ROOM,121,YUAN CHING RD,07 TO 09,61.0,Improved,1974,48 years 03 months,345000.0,121 YUAN CHING RD,610121,1.33570402533121,103.724078165253,2025-04-02
199668,2025-04,JURONG WEST,4 ROOM,514,JURONG WEST ST 52,07 TO 09,103.0,Model A,1984,58 years 02 months,586000.0,514 JURONG WEST ST 52,640514,1.34674845635984,103.720153220929,2025-04-02
199699,2025-04,JURONG WEST,4 ROOM,657B,JURONG WEST ST 65,13 TO 15,91.0,Model A,2001,75 years 04 months,580000.0,657B JURONG WEST ST 65,642657,1.33596098683449,103.700840300361,2025-04-02
199792,2025-04,JURONG WEST,5 ROOM,276C,JURONG WEST ST 25,10 TO 12,111.0,Improved,2002,76 years,560000.0,276C JURONG WEST ST 25,643276,1.35323553027461,103.704442590627,2025-04-02
199832,2025-04,JURONG WEST,5 ROOM,662C,JURONG WEST ST 64,10 TO 12,110.0,Improved,2001,75 years 06 months,703000.0,662C JURONG WEST ST 64,643662,1.33748082799852,103.704016273042,2025-04-02
200114,2025-04,KALLANG/WHAMPOA,5 ROOM,111,WHAMPOA RD,07 TO 09,123.0,Improved,1997,71 years 08 months,880000.0,111 WHAMPOA RD,321111,1.32658975917056,103.856187917486,2025-04-02
200180,2025-04,PASIR RIS,4 ROOM,440,PASIR RIS DR 4,01 TO 03,107.0,Model A,1989,63 years 03 months,608000.0,440 PASIR RIS DR 4,510440,1.36900809318444,103.958696603631,2025-04-02
200216,2025-04,PASIR RIS,5 ROOM,530D,PASIR RIS DR 1,01 TO 03,105.0,DBSS,2015,89 years 03 months,959138.0,530D PASIR RIS DR 1,514530,1.37187505519024,103.950580696055,2025-04-02
200327,2025-04,PUNGGOL,3 ROOM,663A,PUNGGOL DR,10 TO 12,65.0,Model A,2016,90 years 04 months,535000.0,663A PUNGGOL DR,821663,1.40024347553794,103.917080046799,2025-04-02
200333,2025-04,PUNGGOL,3 ROOM,208A,PUNGGOL PL,01 TO 03,67.0,Model A,2014,88 years 03 months,510500.0,208A PUNGGOL PL,821208,1.40146324574732,103.900761051711,2025-04-02
200354,2025-04,PUNGGOL,3 ROOM,224B,SUMANG LANE,10 TO 12,68.0,Model A,2018,92 years 09 months,525000.0,224B SUMANG LANE,822224,1.40182753843533,103.893372218499,2025-04-02
200495,2025-04,PUNGGOL,4 ROOM,273D,PUNGGOL PL,07 TO 09,93.0,Premium Apartment,2013,87 years 04 months,770000.0,273D PUNGGOL PL,824273,1.40252318209096,103.901295922358,2025-04-02
200517,2025-04,PUNGGOL,4 ROOM,310A,PUNGGOL WALK,07 TO 09,92.0,Premium Apartment,2016,90 years 04 months,700000.0,310A PUNGGOL WALK,821310,1.40870088870466,103.901326604714,2025-04-02
200525,2025-04,PUNGGOL,4 ROOM,260C,PUNGGOL WAY,01 TO 03,93.0,Model A,2016,90 years 04 months,620000.0,260C PUNGGOL WAY,823260,1.40524575016039,103.896410927147,2025-04-02
200572,2025-04,PUNGGOL,5 ROOM,105A,EDGEFIELD PLAINS,04 TO 06,110.0,Improved,2003,77 years 03 months,644000.0,105A EDGEFIELD PLAINS,821105,1.3969413315622,103.905729497383,2025-04-02
200573,2025-04,PUNGGOL,5 ROOM,107B,EDGEFIELD PLAINS,01 TO 03,110.0,Improved,2003,77 years 01 month,618000.0,107B EDGEFIELD PLAINS,822107,1.39683723523598,103.907248151565,2025-04-02
200626,2025-04,PUNGGOL,5 ROOM,310A,PUNGGOL WALK,04 TO 06,112.0,Premium Apartment,2016,90 years 03 months,838000.0,310A PUNGGOL WALK,821310,1.40870088870466,103.901326604714,2025-04-02
200698,2025-04,QUEENSTOWN,3 ROOM,5,GHIM MOH RD,04 TO 06,65.0,Improved,1976,50 years 04 months,450000.0,5 GHIM MOH RD,270005,1.31269310627626,103.788308828224,2025-04-02
200731,2025-04,QUEENSTOWN,3 ROOM,171,STIRLING RD,13 TO 15,70.0,Improved,1970,44 years 05 months,455000.0,171 STIRLING RD,140171,1.29073246202285,103.803846934678,2025-04-02
200781,2025-04,QUEENSTOWN,4 ROOM,18C,HOLLAND DR,31 TO 33,92.0,Model A,2012,86 years 06 months,1001000.0,18C HOLLAND DR,274018,1.31031629242811,103.791738859624,2025-04-02
200798,2025-04,QUEENSTOWN,4 ROOM,60,STRATHMORE AVE,25 TO 27,96.0,Model A,2000,74 years 08 months,1000000.0,60 STRATHMORE AVE,141060,1.29308587206923,103.81188488444,2025-04-02
200852,2025-04,SEMBAWANG,2 ROOM,101B,CANBERRA ST,13 TO 15,38.0,2-room,2020,94 years 09 months,360000.0,101B CANBERRA ST,752101,1.45166310353079,103.831174909166,2025-04-02
201041,2025-04,SEMBAWANG,4 ROOM,362C,SEMBAWANG CRES,13 TO 15,93.0,Model A,2019,93 years 02 months,658000.0,362C SEMBAWANG CRES,753362,1.44668372388674,103.813225771052,2025-04-02
201074,2025-04,SEMBAWANG,5 ROOM,483,ADMIRALTY LINK,01 TO 03,110.0,Improved,2004,78 years 03 months,560000.0,483 ADMIRALTY LINK,750483,1.45603699736223,103.815580869079,2025-04-02
201082,2025-04,SEMBAWANG,5 ROOM,503B,CANBERRA LINK,01 TO 03,110.0,Improved,2001,75 years 06 months,585000.0,503B CANBERRA LINK,752503,1.45038042756867,103.822061849106,2025-04-02
201122,2025-04,SEMBAWANG,5 ROOM,108B,CANBERRA WALK,07 TO 09,113.0,Improved,2018,92 years 03 months,785000.0,108B CANBERRA WALK,752108,1.44818951673352,103.831856910403,2025-04-02
201177,2025-04,SENGKANG,2 ROOM,351B,ANCHORVALE RD,01 TO 03,47.0,Model A,2019,93 years 03 months,345000.0,351B ANCHORVALE RD,542351,1.39408455300522,103.88693871388,2025-04-02
201238,2025-04,SENGKANG,3 ROOM,457B,SENGKANG WEST RD,04 TO 06,68.0,Model A,2020,94 years 07 months,506888.0,457B SENGKANG WEST RD,792457,1.39242177196708,103.870777707872,2025-04-02
201275,2025-04,SENGKANG,4 ROOM,356A,ANCHORVALE LANE,13 TO 15,93.0,Model A,2021,95 years,690888.0,356A ANCHORVALE LANE,541356,1.39343577522561,103.884811967949,2025-04-02
201320,2025-04,SENGKANG,4 ROOM,293B,COMPASSVALE CRES,04 TO 06,93.0,Model A,2016,90 years 08 months,620000.0,293B COMPASSVALE CRES,542293,1.39699193578499,103.895995258683,2025-04-02
201439,2025-04,SENGKANG,4 ROOM,178B,RIVERVALE CRES,16 TO 18,93.0,Model A,2015,89 years 01 month,669000.0,178B RIVERVALE CRES,542178,1.38854689304718,103.910034044279,2025-04-02
201500,2025-04,SENGKANG,5 ROOM,301C,ANCHORVALE DR,13 TO 15,111.0,Improved,2001,75 years 07 months,700000.0,301C ANCHORVALE DR,543301,1.3885182028847,103.891082520107,2025-04-02
201507,2025-04,SENGKANG,5 ROOM,356A,ANCHORVALE LANE,13 TO 15,113.0,Improved,2021,94 years 11 months,865000.0,356A ANCHORVALE LANE,541356,1.39343577522561,103.884811967949,2025-04-02
201562,2025-04,SENGKANG,5 ROOM,223C,COMPASSVALE WALK,04 TO 06,121.0,Improved,1999,73 years 01 month,707000.0,223C COMPASSVALE WALK,543223,1.38871268226762,103.89775620823,2025-04-02
201723,2025-04,SERANGOON,4 ROOM,202,SERANGOON CTRL,04 TO 06,84.0,Simplified,1985,59 years 09 months,720000.0,202 SERANGOON CTRL,550202,1.35160097991024,103.873747774097,2025-04-02
201750,2025-04,SERANGOON,5 ROOM,108,SERANGOON NTH AVE 1,10 TO 12,139.0,Adjoined flat,1985,58 years 11 months,828000.0,108 SERANGOON NTH AVE 1,550108,1.36990140336943,103.87120683593,2025-04-02
202004,2025-04,TAMPINES,4 ROOM,609C,TAMPINES NTH DR 1,10 TO 12,93.0,Model A,2020,94 years 08 months,750888.0,609C TAMPINES NTH DR 1,523609,1.3636897807061,103.936514982808,2025-04-02
202005,2025-04,TAMPINES,4 ROOM,612B,TAMPINES NTH DR 1,07 TO 09,93.0,Model A,2020,94 years 07 months,748888.0,612B TAMPINES NTH DR 1,522612,1.36536043524759,103.935789815182,2025-04-02
202056,2025-04,TAMPINES,4 ROOM,443,TAMPINES ST 43,04 TO 06,103.0,Model A,1985,59 years 09 months,608000.0,443 TAMPINES ST 43,520443,1.35883952253242,103.951899349516,2025-04-02
202183,2025-04,TAMPINES,5 ROOM,609A,TAMPINES NTH DR 1,07 TO 09,113.0,Improved,2020,94 years 08 months,895000.0,609A TAMPINES NTH DR 1,521609,1.36361412499017,103.935357759734,2025-04-02
202212,2025-04,TAMPINES,5 ROOM,401,TAMPINES ST 41,10 TO 12,123.0,Improved,1985,59 years 06 months,830000.0,401 TAMPINES ST 41,520401,1.3570728680964,103.944912676662,2025-04-02
202393,2025-04,TOA PAYOH,4 ROOM,118A,ALKAFF CRES,04 TO 06,93.0,Model A,2020,94 years 09 months,1100000.0,118A ALKAFF CRES,341118,1.33649028446747,103.873777299654,2025-04-02
202394,2025-04,TOA PAYOH,4 ROOM,118A,ALKAFF CRES,04 TO 06,97.0,Model A,2020,94 years 09 months,1200000.0,118A ALKAFF CRES,341118,1.33649028446747,103.873777299654,2025-04-02
202465,2025-04,TOA PAYOH,4 ROOM,79E,TOA PAYOH CTRL,19 TO 21,91.0,Model A,2009,83 years 02 months,1010000.0,79E TOA PAYOH CTRL,315079,1.33472713626235,103.849822984337,2025-04-02
202491,2025-04,TOA PAYOH,5 ROOM,250,KIM KEAT LINK,07 TO 09,121.0,Improved,1989,62 years 11 months,798000.0,250 KIM KEAT LINK,310250,1.33199426583747,103.856650727575,2025-04-02
202572,2025-04,WOODLANDS,3 ROOM,780C,WOODLANDS CRES,04 TO 06,67.0,Model A,2015,89 years 04 months,480000.0,780C WOODLANDS CRES,733780,1.44911111477951,103.801346682135,2025-04-02
202573,2025-04,WOODLANDS,3 ROOM,782D,WOODLANDS CRES,10 TO 12,67.0,Model A,2015,89 years 03 months,490000.0,782D WOODLANDS CRES,734782,1.44817394200904,103.803035445933,2025-04-02
202612,2025-04,WOODLANDS,4 ROOM,7,MARSILING DR,04 TO 06,90.0,Improved,1976,49 years 10 months,415000.0,7 MARSILING DR,730007,1.44166906487399,103.776733408183,2025-04-02
202620,2025-04,WOODLANDS,4 ROOM,309,WOODLANDS AVE 1,01 TO 03,89.0,Simplified,1989,63 years 06 months,485000.0,309 WOODLANDS AVE 1,730309,1.42974761626252,103.776015339553,2025-04-02
202628,2025-04,WOODLANDS,4 ROOM,846,WOODLANDS AVE 4,04 TO 06,106.0,Model A,1996,70 years 05 months,575000.0,846 WOODLANDS AVE 4,730846,1.44342673813206,103.793612835968,2025-04-02
202738,2025-04,WOODLANDS,4 ROOM,717B,WOODLANDS DR 70,07 TO 09,88.0,Model A,2017,91 years 09 months,650000.0,717B WOODLANDS DR 70,732717,1.44137023315005,103.798542723674,2025-04-02
202828,2025-04,WOODLANDS,5 ROOM,790,WOODLANDS AVE 6,01 TO 03,121.0,Improved,1997,71 years 07 months,610000.0,790 WOODLANDS AVE 6,730790,1.44279664682069,103.802857264188,2025-04-02
202881,2025-04,WOODLANDS,5 ROOM,890A,WOODLANDS DR 50,04 TO 06,113.0,Improved,2017,91 years 04 months,741000.0,890A WOODLANDS DR 50,731890,1.43828221158378,103.793216471148,2025-04-02
202999,2025-04,YISHUN,2 ROOM,469A,YISHUN ST 43,04 TO 06,47.0,2-room,2019,93 years 09 months,340000.0,469A YISHUN ST 43,761469,1.42469407414992,103.852385726656,2025-04-02
203019,2025-04,YISHUN,3 ROOM,671A,YISHUN AVE 4,07 TO 09,68.0,Model A,2018,91 years 11 months,520000.0,671A YISHUN AVE 4,761671,1.41897568011422,103.842333395726,2025-04-02
203020,2025-04,YISHUN,3 ROOM,672B,YISHUN AVE 4,01 TO 03,68.0,Model A,2018,91 years 11 months,472000.0,672B YISHUN AVE 4,762672,1.41859080728129,103.841823925238,2025-04-02
203258,2025-04,YISHUN,4 ROOM,327,YISHUN RING RD,01 TO 03,84.0,Simplified,1988,62 years 03 months,465000.0,327 YISHUN RING RD,760327,1.43007109914643,103.842396446526,2025-04-02
203262,2025-04,YISHUN,4 ROOM,125,YISHUN ST 11,04 TO 06,91.0,New Generation,1984,58 years 10 months,500000.0,125 YISHUN ST 11,760125,1.4339506942268,103.830439843368,2025-04-02
203332,2025-04,YISHUN,4 ROOM,879,YISHUN ST 81,01 TO 03,104.0,Model A,1987,61 years 08 months,585000.0,879 YISHUN ST 81,760879,1.41444167860568,103.83611779226,2025-04-02
197083,2025-04,ANG MO KIO,3 ROOM,127,ANG MO KIO AVE 3,04 TO 06,67.0,New Generation,1978,52 years 06 months,400000.0,127 ANG MO KIO AVE 3,560127,1.37122322102767,103.843593321222,2025-04-02
197233,2025-04,ANG MO KIO,5 ROOM,553,ANG MO KIO AVE 10,04 TO 06,119.0,Improved,1980,54 years 06 months,680000.0,553 ANG MO KIO AVE 10,560553,1.37260157854458,103.857234141592,2025-04-02
197362,2025-04,BEDOK,3 ROOM,39,BEDOK STH RD,13 TO 15,82.0,New Generation,1978,52 years 06 months,478000.0,39 BEDOK STH RD,460039,1.32139766306096,103.93973036061,2025-04-02
197499,2025-04,BEDOK,5 ROOM,139,BEDOK NTH AVE 3,01 TO 03,117.0,Standard,1979,52 years 11 months,675000.0,139 BEDOK NTH AVE 3,460139,1.32941001130625,103.935397269548,2025-04-02
197501,2025-04,BEDOK,5 ROOM,98,BEDOK NTH AVE 4,22 TO 24,123.0,Standard,1978,52 years 09 months,748000.0,98 BEDOK NTH AVE 4,460098,1.3342332740943,103.93984305789,2025-04-02
197535,2025-04,BEDOK,5 ROOM,34,CHAI CHEE AVE,07 TO 09,119.0,Standard,1975,48 years 11 months,740000.0,34 CHAI CHEE AVE,461034,1.32416996959775,103.926405179845,2025-04-02
197564,2025-04,BISHAN,3 ROOM,110,BISHAN ST 12,04 TO 06,64.0,Simplified,1986,59 years 11 months,548000.0,110 BISHAN ST 12,570110,1.34740957043624,103.848054589423,2025-04-02
197819,2025-04,BUKIT BATOK,4 ROOM,417,BT BATOK WEST AVE 4,10 TO 12,103.0,Model A,1986,60 years 03 months,580000.0,417 BT BATOK WEST AVE 4,650417,1.3628909909218,103.746539240126,2025-04-02
197887,2025-04,BUKIT BATOK,4 ROOM,438A,BT BATOK WEST AVE 8,07 TO 09,93.0,Model A,2020,93 years 11 months,690000.0,438A BT BATOK WEST AVE 8,651438,1.3574856237206,103.740845096872,2025-04-02
197888,2025-04,BUKIT BATOK,4 ROOM,441B,BT BATOK WEST AVE 8,07 TO 09,92.0,Model A,2019,93 years,680000.0,441B BT BATOK WEST AVE 8,652441,1.35600327228239,103.738549101393,2025-04-02
197901,2025-04,BUKIT BATOK,4 ROOM,449A,BT BATOK WEST AVE 9,07 TO 09,93.0,Model A,2019,93 years,675000.0,449A BT BATOK WEST AVE 9,651449,1.35234861922854,103.74151018118,2025-04-02
197923,2025-04,BUKIT BATOK,5 ROOM,463B,BT BATOK ST 41,10 TO 12,113.0,Improved,2021,95 years 04 months,840000.0,463B BT BATOK ST 41,652463,1.35704936773958,103.742307951488,2025-04-02
197938,2025-04,BUKIT BATOK,5 ROOM,394,BT BATOK WEST AVE 5,13 TO 15,115.0,Improved,2004,78 years 07 months,755000.0,394 BT BATOK WEST AVE 5,650394,1.36642311199961,103.752688625262,2025-04-02
197947,2025-04,BUKIT BATOK,5 ROOM,111,BT BATOK WEST AVE 6,10 TO 12,132.0,Model A,1985,59 years,775000.0,111 BT BATOK WEST AVE 6,650111,1.34840644346954,103.745994934101,2025-04-02
198130,2025-04,BUKIT MERAH,4 ROOM,110A,DEPOT RD,04 TO 06,92.0,Model A,2017,91 years 08 months,795000.0,110A DEPOT RD,101110,1.28142824815036,103.809242812919,2025-04-02
198161,2025-04,BUKIT MERAH,4 ROOM,118D,JLN MEMBINA,16 TO 18,92.0,Model A,2003,76 years 10 months,900000.0,118D JLN MEMBINA,164118,1.2826810505173,103.826583442179,2025-04-02
198216,2025-04,BUKIT MERAH,5 ROOM,18,CANTONMENT CL,04 TO 06,110.0,Improved,2002,76 years 10 months,1070000.0,18 CANTONMENT CL,80018,1.27390144581321,103.839417299226,2025-04-02
198307,2025-04,BUKIT PANJANG,4 ROOM,173,GANGSA RD,04 TO 06,101.0,Model A,1997,71 years 09 months,628000.0,173 GANGSA RD,670173,1.37992941455809,103.766762151697,2025-04-02
198377,2025-04,BUKIT PANJANG,4 ROOM,633A,SENJA RD,19 TO 21,93.0,Model A,2013,87 years 09 months,682000.0,633A SENJA RD,671633,1.38558640738414,103.758340839001,2025-04-02
198408,2025-04,BUKIT PANJANG,5 ROOM,204,PETIR RD,01 TO 03,122.0,Improved,1988,62 years 07 months,595000.0,204 PETIR RD,670204,1.37317516532605,103.774810614456,2025-04-02
198487,2025-04,CENTRAL AREA,3 ROOM,4,TG PAGAR PLAZA,16 TO 18,59.0,Improved,1977,50 years 11 months,550000.0,4 TG PAGAR PLAZA,81004,1.27590520131404,103.842741240941,2025-04-02
198496,2025-04,CENTRAL AREA,3 ROOM,34,UPP CROSS ST,13 TO 15,65.0,Improved,1975,49 years 04 months,475000.0,34 UPP CROSS ST,50034,1.2862352148315,103.842303340846,2025-04-02
198526,2025-04,CHOA CHU KANG,3 ROOM,809B,CHOA CHU KANG AVE 1,13 TO 15,67.0,Model A,2017,91 years 01 month,508000.0,809B CHOA CHU KANG AVE 1,682809,1.37476188616122,103.744965122728,2025-04-02
198537,2025-04,CHOA CHU KANG,3 ROOM,26,TECK WHYE LANE,01 TO 03,74.0,New Generation,1979,53 years 01 month,395000.0,26 TECK WHYE LANE,680026,1.37762112372223,103.755740001262,2025-04-02
198546,2025-04,CHOA CHU KANG,4 ROOM,296E,CHOA CHU KANG AVE 2,01 TO 03,102.0,Premium Apartment,1999,73 years 04 months,500000.0,296E CHOA CHU KANG AVE 2,685296,1.37691701980975,103.743047128967,2025-04-02
198559,2025-04,CHOA CHU KANG,4 ROOM,280,CHOA CHU KANG AVE 3,10 TO 12,104.0,Model A,1992,66 years 05 months,563000.0,280 CHOA CHU KANG AVE 3,680280,1.3808318992022,103.74293968344,2025-04-02
198593,2025-04,CHOA CHU KANG,4 ROOM,815B,CHOA CHU KANG AVE 7,07 TO 09,93.0,Model A,2017,91 years 01 month,640000.0,815B CHOA CHU KANG AVE 7,682815,1.37684626113984,103.747376759116,2025-04-02
198712,2025-04,CHOA CHU KANG,5 ROOM,691A,CHOA CHU KANG CRES,13 TO 15,110.0,Improved,2003,77 years 02 months,570000.0,691A CHOA CHU KANG CRES,681691,1.40115779753494,103.751471709468,2025-04-02
198876,2025-04,CLEMENTI,4 ROOM,461,CLEMENTI AVE 3,07 TO 09,90.0,Model A,2006,80 years 08 months,860000.0,461 CLEMENTI AVE 3,120461,1.31109915509699,103.766399536327,2025-04-02
198984,2025-04,GEYLANG,3 ROOM,61,CIRCUIT RD,01 TO 03,61.0,Standard,1969,42 years 10 months,336000.0,61 CIRCUIT RD,370061,1.32573742833728,103.887054329523,2025-04-02
199154,2025-04,HOUGANG,3 ROOM,311,HOUGANG AVE 5,10 TO 12,83.0,New Generation,1983,57 years 02 months,475000.0,311 HOUGANG AVE 5,530311,1.36566733064792,103.894853675162,2025-04-02
199255,2025-04,HOUGANG,4 ROOM,341,HOUGANG AVE 7,10 TO 12,93.0,New Generation,1985,59 years 05 months,585000.0,341 HOUGANG AVE 7,530341,1.37044549024151,103.898588733978,2025-04-02
199447,2025-04,JURONG EAST,3 ROOM,306,JURONG EAST ST 32,01 TO 03,70.0,New Generation,1983,57 years 06 months,390000.0,306 JURONG EAST ST 32,600306,1.34607046577403,103.735252691468,2025-04-02
199522,2025-04,JURONG EAST,5 ROOM,265,TOH GUAN RD,10 TO 12,121.0,Improved,1998,72 years 07 months,800000.0,265 TOH GUAN RD,600265,1.34070811731138,103.744702329438,2025-04-02
199989,2025-04,KALLANG/WHAMPOA,3 ROOM,59,JLN MA'MOR,01 TO 03,79.4,Terrace,1972,46 years 04 months,950000.0,59 JLN MA'MOR,320059,1.32810958408436,103.857125685289,2025-04-02
199993,2025-04,KALLANG/WHAMPOA,3 ROOM,116A,JLN TENTERAM,04 TO 06,67.0,Model A,2017,91 years 08 months,550000.0,116A JLN TENTERAM,321116,1.3270531250321,103.860558381575,2025-04-02
200103,2025-04,KALLANG/WHAMPOA,4 ROOM,26B,ST. GEORGE'S LANE,10 TO 12,92.0,Model A,2020,94 years 02 months,1050000.0,26B ST. GEORGE'S LANE,322026,1.32166862124903,103.862717909816,2025-04-02
200104,2025-04,KALLANG/WHAMPOA,4 ROOM,26B,ST. GEORGE'S LANE,19 TO 21,92.0,Model A,2020,94 years 02 months,1138000.0,26B ST. GEORGE'S LANE,322026,1.32166862124903,103.862717909816,2025-04-02
200124,2025-04,KALLANG/WHAMPOA,4 ROOM,2B,UPP BOON KENG RD,28 TO 30,90.0,Model A,2006,80 years 07 months,990000.0,2B UPP BOON KENG RD,382002,1.31361422747897,103.871604373826,2025-04-02
200176,2025-04,MARINE PARADE,3 ROOM,4,MARINE TER,07 TO 09,65.0,Improved,1975,48 years 10 months,490000.0,4 MARINE TER,440004,1.30509642100259,103.917733747552,2025-04-02
200200,2025-04,MARINE PARADE,5 ROOM,8,MARINE TER,01 TO 03,130.0,Adjoined flat,1975,48 years 11 months,910000.0,8 MARINE TER,440008,1.30436465592228,103.916108628733,2025-04-02
200201,2025-04,MARINE PARADE,5 ROOM,14,MARINE TER,13 TO 15,117.0,Standard,1975,48 years 11 months,955000.0,14 MARINE TER,440014,1.30347617922703,103.915411740341,2025-04-02
200351,2025-04,PUNGGOL,2 ROOM,210C,PUNGGOL PL,16 TO 18,46.0,Model A,2014,88 years 10 months,387000.0,210C PUNGGOL PL,823210,1.39965440414761,103.899915641085,2025-04-02
200428,2025-04,PUNGGOL,4 ROOM,662A,EDGEDALE PLAINS,19 TO 21,92.0,Premium Apartment,2017,91 years 02 months,680000.0,662A EDGEDALE PLAINS,821662,1.4020044862654,103.918326393281,2025-04-02
200457,2025-04,PUNGGOL,4 ROOM,622B,PUNGGOL CTRL,07 TO 09,94.0,Model A,2014,88 years 02 months,645000.0,622B PUNGGOL CTRL,822622,1.40034369782027,103.91054120733,2025-04-02
200579,2025-04,PUNGGOL,4 ROOM,232C,SUMANG LANE,07 TO 09,93.0,Model A,2018,92 years 08 months,646888.0,232C SUMANG LANE,823232,1.40203576124081,103.890116621791,2025-04-02
200609,2025-04,PUNGGOL,5 ROOM,126A,EDGEDALE PLAINS,07 TO 09,110.0,Improved,2003,77 years 01 month,665000.0,126A EDGEDALE PLAINS,821126,1.39410054969153,103.911356165393,2025-04-02
200620,2025-04,PUNGGOL,5 ROOM,107A,EDGEFIELD PLAINS,16 TO 18,110.0,Improved,2003,77 years,666000.0,107A EDGEFIELD PLAINS,821107,1.39719879396476,103.906825785664,2025-04-02
200621,2025-04,PUNGGOL,5 ROOM,107D,EDGEFIELD PLAINS,10 TO 12,110.0,Improved,2003,77 years 01 month,600000.0,107D EDGEFIELD PLAINS,824107,1.39623803491797,103.908007315128,2025-04-02
200640,2025-04,PUNGGOL,5 ROOM,658B,PUNGGOL EAST,04 TO 06,113.0,Improved,2018,92 years 08 months,758800.0,658B PUNGGOL EAST,822658,1.40021371053357,103.919048765929,2025-04-02
200641,2025-04,PUNGGOL,5 ROOM,658C,PUNGGOL EAST,07 TO 09,113.0,Improved,2018,92 years 09 months,838000.0,658C PUNGGOL EAST,823658,1.40054860434992,103.918647557106,2025-04-02
200699,2025-04,PUNGGOL,5 ROOM,323A,SUMANG WALK,04 TO 06,113.0,Premium Apartment,2020,93 years 11 months,825000.0,323A SUMANG WALK,821323,1.41239137117199,103.898233670211,2025-04-02
200723,2025-04,QUEENSTOWN,3 ROOM,100,C'WEALTH CRES,07 TO 09,68.0,Standard,1970,44 years 04 months,400000.0,100 C'WEALTH CRES,140100,1.30770527644458,103.801272476263,2025-04-02
200840,2025-04,QUEENSTOWN,4 ROOM,183,STIRLING RD,01 TO 03,95.0,Model A,2000,74 years 08 months,868000.0,183 STIRLING RD,140183,1.29568740644003,103.80486231318,2025-04-02
201061,2025-04,SEMBAWANG,4 ROOM,102A,CANBERRA ST,04 TO 06,93.0,Model A,2020,94 years 09 months,600000.0,102A CANBERRA ST,751102,1.45119390519494,103.832227554636,2025-04-02
201096,2025-04,SEMBAWANG,4 ROOM,362B,SEMBAWANG CRES,04 TO 06,93.0,Model A,2019,93 years 02 months,615000.0,362B SEMBAWANG CRES,752362,1.4465925712422,103.813540833248,2025-04-02
201097,2025-04,SEMBAWANG,4 ROOM,362B,SEMBAWANG CRES,07 TO 09,93.0,Model A,2019,93 years 02 months,630000.0,362B SEMBAWANG CRES,752362,1.4465925712422,103.813540833248,2025-04-02
201124,2025-04,SEMBAWANG,5 ROOM,467B,ADMIRALTY DR,04 TO 06,118.0,Premium Apartment,2001,75 years 04 months,610000.0,467B ADMIRALTY DR,752467,1.45114148417526,103.813629843094,2025-04-02
201133,2025-04,SEMBAWANG,5 ROOM,402,ADMIRALTY LINK,04 TO 06,110.0,Improved,2001,75 years 02 months,588000.0,402 ADMIRALTY LINK,750402,1.45389053873224,103.815769086937,2025-04-02
201177,2025-04,SEMBAWANG,5 ROOM,101A,CANBERRA ST,10 TO 12,116.0,Improved,2020,94 years 09 months,830000.0,101A CANBERRA ST,751101,1.45173892803325,103.83045410628,2025-04-02
201178,2025-04,SEMBAWANG,5 ROOM,102A,CANBERRA ST,01 TO 03,116.0,Improved,2020,94 years 09 months,745000.0,102A CANBERRA ST,751102,1.45119390519494,103.832227554636,2025-04-02
201179,2025-04,SEMBAWANG,5 ROOM,102A,CANBERRA ST,04 TO 06,116.0,Improved,2020,94 years 09 months,765000.0,102A CANBERRA ST,751102,1.45119390519494,103.832227554636,2025-04-02
201338,2025-04,SENGKANG,4 ROOM,356B,ANCHORVALE LANE,10 TO 12,93.0,Model A,2021,94 years 11 months,728000.0,356B ANCHORVALE LANE,542356,1.39390663331416,103.884506817902,2025-04-02
201355,2025-04,SENGKANG,4 ROOM,317C,ANCHORVALE RD,10 TO 12,92.0,Premium Apartment,2003,77 years,590000.0,317C ANCHORVALE RD,543317,1.39345998492639,103.888223477645,2025-04-02
201421,2025-04,SENGKANG,4 ROOM,273B,COMPASSVALE LINK,07 TO 09,90.0,Premium Apartment,2009,83 years 05 months,815000.0,273B COMPASSVALE LINK,542273,1.3845437429841,103.895001773759,2025-04-02
201505,2025-04,SENGKANG,4 ROOM,158C,RIVERVALE CRES,16 TO 18,90.0,Premium Apartment,2003,77 years 06 months,585000.0,158C RIVERVALE CRES,543158,1.38818825958938,103.907145829717,2025-04-02
201590,2025-04,SENGKANG,5 ROOM,317B,ANCHORVALE RD,04 TO 06,110.0,Premium Apartment,2003,77 years 03 months,652000.0,317B ANCHORVALE RD,542317,1.39386232204759,103.888540263546,2025-04-02
201678,2025-04,SENGKANG,5 ROOM,144,RIVERVALE DR,07 TO 09,122.0,Improved,1999,73 years 09 months,656000.0,144 RIVERVALE DR,540144,1.3891697231591,103.905930313783,2025-04-02
201735,2025-04,SENGKANG,EXECUTIVE,143,RIVERVALE DR,16 TO 18,140.0,Apartment,1999,73 years 10 months,880000.0,143 RIVERVALE DR,540143,1.39006592833714,103.905723427087,2025-04-02
201808,2025-04,SERANGOON,5 ROOM,426,SERANGOON AVE 1,13 TO 15,121.0,Improved,1988,62 years 09 months,990000.0,426 SERANGOON AVE 1,550426,1.34779505728772,103.876022094599,2025-04-02
201861,2025-04,TAMPINES,3 ROOM,520A,TAMPINES CTRL 8,13 TO 15,62.0,DBSS,2014,88 years 03 months,680000.0,520A TAMPINES CTRL 8,521520,1.35701024664546,103.939911246503,2025-04-02
201879,2025-04,TAMPINES,3 ROOM,613A,TAMPINES NTH DR 1,10 TO 12,69.0,Model A,2020,94 years 07 months,625000.0,613A TAMPINES NTH DR 1,521613,1.3657934916842,103.935322892026,2025-04-02
201898,2025-04,TAMPINES,3 ROOM,204,TAMPINES ST 21,07 TO 09,60.0,Improved,1983,57 years 10 months,388000.0,204 TAMPINES ST 21,520204,1.35217984684253,103.951695356215,2025-04-02
202003,2025-04,TAMPINES,4 ROOM,519A,TAMPINES CTRL 8,13 TO 15,83.0,DBSS,2014,88 years 03 months,862000.0,519A TAMPINES CTRL 8,521519,1.35727594461393,103.940381600354,2025-04-02
202125,2025-04,TAMPINES,4 ROOM,414,TAMPINES ST 41,04 TO 06,84.0,Simplified,1987,61 years 03 months,300000.0,414 TAMPINES ST 41,520414,1.35981195619451,103.946549508112,2025-04-02
202184,2025-04,TAMPINES,5 ROOM,168B,SIMEI LANE,10 TO 12,107.0,DBSS,2011,84 years 11 months,968000.0,168B SIMEI LANE,522168,1.34261198398468,103.958768059936,2025-04-02
202260,2025-04,TAMPINES,5 ROOM,608B,TAMPINES NTH DR 1,07 TO 09,113.0,Improved,2020,94 years 07 months,872000.0,608B TAMPINES NTH DR 1,522608,1.36312572875358,103.935956103971,2025-04-02
202261,2025-04,TAMPINES,5 ROOM,612A,TAMPINES NTH DR 1,07 TO 09,113.0,Improved,2020,94 years 07 months,900000.0,612A TAMPINES NTH DR 1,521612,1.36528634266006,103.935196033623,2025-04-02
202455,2025-04,TOA PAYOH,3 ROOM,25,TOA PAYOH EAST,01 TO 03,67.0,Improved,1971,44 years 11 months,360000.0,25 TOA PAYOH EAST,310025,1.33356606706026,103.856981751253,2025-04-02
202474,2025-04,TOA PAYOH,4 ROOM,115C,ALKAFF CRES,07 TO 09,93.0,Model A,2020,94 years 09 months,1040000.0,115C ALKAFF CRES,343115,1.33722847497236,103.872886634076,2025-04-02
202646,2025-04,WOODLANDS,3 ROOM,131,MARSILING RISE,07 TO 09,60.0,Improved,1985,58 years 10 months,390000.0,131 MARSILING RISE,730131,1.43847983955609,103.778613439344,2025-04-02
202679,2025-04,WOODLANDS,3 ROOM,185B,WOODLANDS ST 13,13 TO 15,68.0,Model A,2019,93 years 07 months,533000.0,185B WOODLANDS ST 13,732185,1.43585650383199,103.776294109996,2025-04-02
202753,2025-04,WOODLANDS,4 ROOM,787B,WOODLANDS CRES,01 TO 03,100.0,Model A,1997,71 years 07 months,545000.0,787B WOODLANDS CRES,732787,1.44456206997385,103.800811554206,2025-04-02
202776,2025-04,WOODLANDS,4 ROOM,573B,WOODLANDS DR 16,10 TO 12,93.0,Model A,2018,92 years 03 months,660000.0,573B WOODLANDS DR 16,732573,1.43084072475669,103.797770248134,2025-04-02
202797,2025-04,WOODLANDS,4 ROOM,895A,WOODLANDS DR 50,10 TO 12,99.0,Model A,1997,70 years 10 months,598000.0,895A WOODLANDS DR 50,730895,1.43607371173984,103.791488541391,2025-04-02
202855,2025-04,WOODLANDS,4 ROOM,783D,WOODLANDS RISE,10 TO 12,93.0,Model A,2018,92 years 04 months,617000.0,783D WOODLANDS RISE,734783,1.44697243135983,103.803367709955,2025-04-02
202893,2025-04,WOODLANDS,4 ROOM,872,WOODLANDS ST 81,04 TO 06,108.0,Model A,1996,70 years 02 months,555000.0,872 WOODLANDS ST 81,730872,1.44408730145683,103.789811521995,2025-04-02
202926,2025-04,WOODLANDS,5 ROOM,727,WOODLANDS CIRCLE,01 TO 03,121.0,Improved,1997,71 years 04 months,640000.0,727 WOODLANDS CIRCLE,730727,1.44367879146851,103.799836033871,2025-04-02
202955,2025-04,WOODLANDS,5 ROOM,702,WOODLANDS DR 40,07 TO 09,119.0,Improved,1996,70 years 09 months,658000.0,702 WOODLANDS DR 40,730702,1.44186518242192,103.796513720248,2025-04-02
202977,2025-04,WOODLANDS,5 ROOM,694C,WOODLANDS DR 62,10 TO 12,113.0,Improved,2018,92 years 06 months,772000.0,694C WOODLANDS DR 62,733694,1.43882273055925,103.80571417998,2025-04-02
203028,2025-04,WOODLANDS,5 ROOM,417,WOODLANDS ST 41,07 TO 09,128.0,Improved,1996,69 years 11 months,685000.0,417 WOODLANDS ST 41,730417,1.42885830961844,103.774024710128,2025-04-02
203050,2025-04,WOODLANDS,EXECUTIVE,788C,WOODLANDS CRES,04 TO 06,143.0,Maisonette,1999,73 years 02 months,818000.0,788C WOODLANDS CRES,733788,1.44387179785993,103.801833448049,2025-04-02
203064,2025-04,WOODLANDS,EXECUTIVE,646,WOODLANDS RING RD,04 TO 06,141.0,Apartment,1998,72 years 05 months,890000.0,646 WOODLANDS RING RD,730646,1.43760681675827,103.800402340562,2025-04-02
203065,2025-04,WOODLANDS,EXECUTIVE,650,WOODLANDS RING RD,10 TO 12,144.0,Maisonette,1998,72 years 03 months,935000.0,650 WOODLANDS RING RD,730650,1.43828467863174,103.800646271906,2025-04-02
203092,2025-04,YISHUN,2 ROOM,676A,YISHUN RING RD,04 TO 06,47.0,2-room,2018,92 years 07 months,360000.0,676A YISHUN RING RD,761676,1.42145242328288,103.84332790779,2025-04-02
203130,2025-04,YISHUN,3 ROOM,705,YISHUN AVE 5,01 TO 03,67.0,New Generation,1984,58 years 04 months,405000.0,705 YISHUN AVE 5,760705,1.42909454984153,103.829511668002,2025-04-02
203165,2025-04,YISHUN,3 ROOM,136,YISHUN RING RD,07 TO 09,68.0,New Generation,1984,58 years 07 months,432500.0,136 YISHUN RING RD,760136,1.43203129125603,103.831436163973,2025-04-02
203211,2025-04,YISHUN,3 ROOM,335B,YISHUN ST 31,07 TO 09,67.0,Model A,2015,89 years 08 months,478000.0,335B YISHUN ST 31,762335,1.43284184188975,103.844333075878,2025-04-02
203221,2025-04,YISHUN,3 ROOM,501A,YISHUN ST 51,13 TO 15,67.0,Model A,2018,91 years 11 months,512000.0,501A YISHUN ST 51,761501,1.41658398264925,103.840450135147,2025-04-02
203301,2025-04,YISHUN,4 ROOM,506B,YISHUN AVE 4,01 TO 03,93.0,Model A,2018,92 years 02 months,585000.0,506B YISHUN AVE 4,762506,1.41581868901228,103.840678829265,2025-04-02
203319,2025-04,YISHUN,4 ROOM,437,YISHUN AVE 6,07 TO 09,104.0,Model A,1988,62 years 06 months,545000.0,437 YISHUN AVE 6,760437,1.42168752611672,103.84756072452,2025-04-02
203361,2025-04,YISHUN,4 ROOM,329,YISHUN RING RD,10 TO 12,84.0,Simplified,1988,61 years 10 months,515000.0,329 YISHUN RING RD,760329,1.43030125625917,103.842618159616,2025-04-02
203385,2025-04,YISHUN,4 ROOM,336A,YISHUN ST 31,10 TO 12,92.0,Model A,2015,89 years 08 months,600000.0,336A YISHUN ST 31,761336,1.43129939349116,103.84467527369,2025-04-02
203430,2025-04,YISHUN,4 ROOM,760,YISHUN ST 72,04 TO 06,84.0,Simplified,1987,61 years,520000.0,760 YISHUN ST 72,760760,1.42579485526292,103.832724670537,2025-04-02
203514,2025-04,YISHUN,EXECUTIVE,606,YISHUN ST 61,01 TO 03,146.0,Maisonette,1987,61 years 08 months,825000.0,606 YISHUN ST 61,760606,1.42133417332717,103.836318252115,2025-04-02
