_id,month,town,flat_type,block,street_name,storey_range,floor_area_sqm,flat_model,lease_commence_date,remaining_lease,resale_price,address,postal,latitude,longitude,_ts
222151,2026-05,ANG MO KIO,3 ROOM,343,ANG MO KIO AVE 3,10 TO 12,73.0,New Generation,1978,51 years,489000.0,343 ANG MO KIO AVE 3,560343,1.368374747594891,103.8491511137486,2026-05-04
227014,2026-05,QUEENSTOWN,4 ROOM,93,DAWSON RD,16 TO 18,83.0,Premium Apartment,2016,89 years,1080000.0,93 DAWSON RD,142093,1.294992269633498,103.8117965437001,2026-05-04
227987,2026-05,SERANGOON,3 ROOM,152,SERANGOON NTH AVE 1,01 TO 03,64.0,Simplified,1986,59 years 08 months,443000.0,152 SERANGOON NTH AVE 1,550152,1.369347267978119,103.8726139976962,2026-05-04
227967,2026-05,SERANGOON,3 ROOM,301,SERANGOON AVE 2,04 TO 06,67.0,New Generation,1985,57 years 09 months,460000.0,301 SERANGOON AVE 2,550301,1.35288347756586,103.8678228114751,2026-05-04
227739,2026-05,SENGKANG,4 ROOM,438A,SENGKANG WEST AVE,10 TO 12,94.0,Model A,2011,83 years 10 months,636168.0,438A SENGKANG WEST AVE,791438,1.392746040007342,103.8774217461561,2026-05-04
227552,2026-05,SENGKANG,4 ROOM,201B,COMPASSVALE DR,04 TO 06,90.0,Model A,2001,74 years 03 months,608000.0,201B COMPASSVALE DR,542201,1.388313115711482,103.8939236398603,2026-05-04
227527,2026-05,SENGKANG,4 ROOM,274C,COMPASSVALE BOW,01 TO 03,92.0,Model A,2017,90 years 07 months,775000.0,274C COMPASSVALE BOW,543274,1.382286678011812,103.8911184680944,2026-05-04
227462,2026-05,SENGKANG,3 ROOM,445B,FERNVALE RD,10 TO 12,67.0,Model A,2012,85 years 07 months,555888.0,445B FERNVALE RD,792445,1.39224716162446,103.8740951304291,2026-05-04
227361,2026-05,SEMBAWANG,5 ROOM,335,SEMBAWANG CL,07 TO 09,120.0,Improved,1999,72 years 06 months,650000.0,335 SEMBAWANG CL,750335,1.447163473362805,103.8150135474785,2026-05-04
227360,2026-05,SEMBAWANG,5 ROOM,335,SEMBAWANG CL,04 TO 06,116.0,Improved,1999,72 years 06 months,650000.0,335 SEMBAWANG CL,750335,1.447163473362805,103.8150135474785,2026-05-04
227344,2026-05,SEMBAWANG,5 ROOM,108A,CANBERRA WALK,04 TO 06,113.0,Improved,2018,91 years 01 month,770000.0,108A CANBERRA WALK,751108,1.44776056626368,103.831274677849,2026-05-04
227162,2026-05,SEMBAWANG,3 ROOM,363B,SEMBAWANG CRES,07 TO 09,68.0,Model A,2019,92 years 01 month,492000.0,363B SEMBAWANG CRES,752363,1.445755907187242,103.8136380438077,2026-05-04
227148,2026-05,SEMBAWANG,3 ROOM,128B,CANBERRA ST,07 TO 09,68.0,Model A,2018,91 years 06 months,520000.0,128B CANBERRA ST,752128,1.44514889153349,103.8339256593529,2026-05-04
227060,2026-05,QUEENSTOWN,4 ROOM,52,STRATHMORE AVE,31 TO 33,90.0,Model A,2006,79 years 08 months,980000.0,52 STRATHMORE AVE,141052,1.293313144802908,103.8082534345322,2026-05-04
227036,2026-05,QUEENSTOWN,4 ROOM,22,GHIM MOH LINK,13 TO 15,87.0,Model A,2013,86 years,1040000.0,22 GHIM MOH LINK,271022,1.309356763421278,103.7854897149447,2026-05-04
227013,2026-05,QUEENSTOWN,4 ROOM,79,DAWSON RD,04 TO 06,88.0,Model A,2020,93 years 07 months,1008800.0,79 DAWSON RD,141079,1.294590831600798,103.8103266362429,2026-05-04
226272,2026-05,PASIR RIS,5 ROOM,721,PASIR RIS ST 72,04 TO 06,126.0,Improved,1996,69 years 03 months,648000.0,721 PASIR RIS ST 72,510721,1.381462355797908,103.9363320748304,2026-05-04
226935,2026-05,QUEENSTOWN,3 ROOM,1,GHIM MOH RD,10 TO 12,65.0,Improved,1976,49 years 03 months,378000.0,1 GHIM MOH RD,270001,1.312879756843084,103.786855017635,2026-05-04
226909,2026-05,QUEENSTOWN,3 ROOM,96,DAWSON RD,04 TO 06,63.0,Premium Apartment,2021,94 years 06 months,808000.0,96 DAWSON RD,141096,1.296278147282728,103.8125449571695,2026-05-04
226908,2026-05,QUEENSTOWN,3 ROOM,95,DAWSON RD,16 TO 18,63.0,Premium Apartment,2021,94 years 06 months,868888.0,95 DAWSON RD,141095,1.296297098425077,103.8118996205856,2026-05-04
226907,2026-05,QUEENSTOWN,3 ROOM,87,DAWSON RD,28 TO 30,65.0,Premium Apartment,2016,89 years 04 months,830000.0,87 DAWSON RD,141087,1.29573042684511,103.8097599374422,2026-05-04
226824,2026-05,PUNGGOL,5 ROOM,308C,PUNGGOL WALK,07 TO 09,112.0,Premium Apartment,2016,88 years 11 months,825000.0,308C PUNGGOL WALK,823308,1.408006949440278,103.899074357998,2026-05-04
226716,2026-05,PUNGGOL,4 ROOM,217B,SUMANG WALK,01 TO 03,92.0,Model A,2017,90 years 03 months,608888.0,217B SUMANG WALK,822217,1.40240161394665,103.8949349888346,2026-05-04
226699,2026-05,PUNGGOL,4 ROOM,313C,SUMANG LINK,04 TO 06,92.0,Model A,2015,88 years 02 months,698000.0,313C SUMANG LINK,823313,1.41062885103467,103.9015518524573,2026-05-04
226617,2026-05,PUNGGOL,4 ROOM,273B,PUNGGOL PL,01 TO 03,93.0,Premium Apartment,2013,86 years 03 months,690000.0,273B PUNGGOL PL,822273,1.401960107713409,103.9017787674389,2026-05-04
226557,2026-05,PUNGGOL,4 ROOM,637B,PUNGGOL DR,16 TO 18,90.0,Premium Apartment,2005,77 years 09 months,615000.0,637B PUNGGOL DR,822637,1.399495970037211,103.9149545088169,2026-05-04
226505,2026-05,PUNGGOL,4 ROOM,415B,NORTHSHORE DR,04 TO 06,94.0,Model A,2022,94 years 09 months,830000.0,415B NORTHSHORE DR,822415,1.417186983477018,103.9000341407225,2026-05-04
226422,2026-05,PUNGGOL,3 ROOM,261A,PUNGGOL WAY,04 TO 06,68.0,Model A,2016,89 years 02 months,538000.0,261A PUNGGOL WAY,821261,1.405969914891258,103.8968032906215,2026-05-04
226371,2026-05,PUNGGOL,2 ROOM,327C,SUMANG WALK,13 TO 15,47.0,Model A,2018,91 years 07 months,406888.0,327C SUMANG WALK,823327,1.412069302907677,103.8999742797256,2026-05-04
226346,2026-05,PUNGGOL,2 ROOM,421B,NORTHSHORE DR,16 TO 18,38.0,2-room,2021,94 years 06 months,356000.0,421B NORTHSHORE DR,822421,1.419246373674442,103.9047047084346,2026-05-04
228015,2026-05,SERANGOON,4 ROOM,258,SERANGOON CTRL DR,10 TO 12,99.0,Model A,1999,72 years 01 month,850000.0,258 SERANGOON CTRL DR,550258,1.355169375777904,103.8727086626518,2026-05-04
228035,2026-05,SERANGOON,5 ROOM,312,SERANGOON AVE 2,07 TO 09,121.0,Improved,1985,58 years 04 months,790000.0,312 SERANGOON AVE 2,550312,1.353288107730675,103.8657964410432,2026-05-04
228070,2026-05,TAMPINES,3 ROOM,139,SIMEI ST 1,01 TO 03,64.0,Simplified,1987,60 years 08 months,450000.0,139 SIMEI ST 1,520139,1.346683510004166,103.956561347886,2026-05-04
228091,2026-05,TAMPINES,3 ROOM,519C,TAMPINES CTRL 8,01 TO 03,62.0,DBSS,2014,87 years 02 months,650000.0,519C TAMPINES CTRL 8,523519,1.356213388676081,103.9399604552705,2026-05-04
230144,2026-05,YISHUN,5 ROOM,513D,YISHUN ST 51,01 TO 03,113.0,Improved,2018,90 years 10 months,660000.0,513D YISHUN ST 51,764513,1.415633560272148,103.8443278165228,2026-05-04
230044,2026-05,YISHUN,4 ROOM,612,YISHUN ST 61,10 TO 12,83.0,Simplified,1987,59 years 09 months,508000.0,612 YISHUN ST 61,760612,1.420364752376071,103.8354133047744,2026-05-04
230014,2026-05,YISHUN,4 ROOM,469A,YISHUN ST 43,13 TO 15,93.0,Model A,2019,92 years 07 months,570000.0,469A YISHUN ST 43,761469,1.424694074149926,103.8523857266555,2026-05-04
229817,2026-05,YISHUN,4 ROOM,431A,YISHUN AVE 1,01 TO 03,92.0,Model A,2015,88 years 05 months,532000.0,431A YISHUN AVE 1,761431,1.419606824978973,103.8472882371097,2026-05-04
229807,2026-05,YISHUN,3 ROOM,716,YISHUN ST 71,04 TO 06,64.0,Simplified,1987,60 years 07 months,398000.0,716 YISHUN ST 71,760716,1.426210965650141,103.8277041082942,2026-05-04
229800,2026-05,YISHUN,3 ROOM,632,YISHUN ST 61,07 TO 09,64.0,Simplified,1987,60 years 06 months,410000.0,632 YISHUN ST 61,760632,1.418567367834623,103.8391869372621,2026-05-04
229795,2026-05,YISHUN,3 ROOM,478C,YISHUN ST 44,13 TO 15,67.0,Model A,2021,93 years 09 months,490000.0,478C YISHUN ST 44,763478,1.429783899485012,103.8511903597729,2026-05-04
229743,2026-05,YISHUN,3 ROOM,110,YISHUN RING RD,01 TO 03,64.0,Simplified,1986,58 years 11 months,393000.0,110 YISHUN RING RD,760110,1.433760579377175,103.8289933894433,2026-05-04
229665,2026-05,YISHUN,2 ROOM,459,YISHUN AVE 11,07 TO 09,48.0,Model A,2013,86 years 04 months,363000.0,459 YISHUN AVE 11,760459,1.421035749268419,103.8463335470352,2026-05-04
229593,2026-05,WOODLANDS,5 ROOM,859,WOODLANDS ST 83,10 TO 12,129.0,Improved,1996,69 years 02 months,715000.0,859 WOODLANDS ST 83,730859,1.439881884145712,103.7939667918714,2026-05-04
229513,2026-05,WOODLANDS,5 ROOM,786C,WOODLANDS DR 60,04 TO 06,122.0,Improved,1997,70 years 05 months,570000.0,786C WOODLANDS DR 60,733786,1.445818677172049,103.8010688534692,2026-05-04
229457,2026-05,WOODLANDS,5 ROOM,782D,WOODLANDS CRES,01 TO 03,112.0,Improved,2015,88 years 03 months,645000.0,782D WOODLANDS CRES,734782,1.448173942009035,103.8030354459325,2026-05-04
229450,2026-05,WOODLANDS,5 ROOM,754,WOODLANDS CIRCLE,01 TO 03,122.0,Improved,1997,70 years 08 months,627000.0,754 WOODLANDS CIRCLE,731754,1.445289017126342,103.7939287664311,2026-05-04
229433,2026-05,WOODLANDS,5 ROOM,363,WOODLANDS AVE 5,01 TO 03,120.0,Improved,1996,69 years 07 months,695000.0,363 WOODLANDS AVE 5,730363,1.433928320520405,103.785927938556,2026-05-04
229316,2026-05,WOODLANDS,4 ROOM,716,WOODLANDS DR 70,01 TO 03,102.0,Model A,1997,70 years 02 months,565000.0,716 WOODLANDS DR 70,730716,1.441508349646104,103.799778803838,2026-05-04
229255,2026-05,WOODLANDS,4 ROOM,602,WOODLANDS DR 42,01 TO 03,101.0,Model A,1997,70 years,507500.0,602 WOODLANDS DR 42,730602,1.438217416071972,103.7963915005082,2026-05-04
229030,2026-05,WOODLANDS,2 ROOM,780F,WOODLANDS CRES,13 TO 15,47.0,Model A,2015,88 years 03 months,370000.0,780F WOODLANDS CRES,736780,1.447777264698858,103.8011484462436,2026-05-04
229009,2026-05,TOA PAYOH,5 ROOM,84A,LOR 2 TOA PAYOH,13 TO 15,122.0,Improved,1997,70 years 01 month,1260000.0,84A LOR 2 TOA PAYOH,311084,1.335355004002616,103.8470299111505,2026-05-04
228940,2026-05,TOA PAYOH,4 ROOM,35,LOR 5 TOA PAYOH,04 TO 06,102.0,Model A,1997,70 years 05 months,748000.0,35 LOR 5 TOA PAYOH,310035,1.334327796827975,103.8544907704081,2026-05-04
228781,2026-05,TOA PAYOH,3 ROOM,96,LOR 3 TOA PAYOH,10 TO 12,68.0,Improved,1970,42 years 09 months,360000.0,96 LOR 3 TOA PAYOH,310096,1.338624064633579,103.8483797854567,2026-05-04
228646,2026-05,TAMPINES,5 ROOM,871B,TAMPINES ST 86,16 TO 18,113.0,Improved,2017,89 years 10 months,910000.0,871B TAMPINES ST 86,522871,1.356511473069168,103.9319567676765,2026-05-04
228609,2026-05,TAMPINES,5 ROOM,619A,TAMPINES ST 61,04 TO 06,113.0,Improved,2021,94 years 07 months,865000.0,619A TAMPINES ST 61,521619,1.361885853654712,103.9386871436541,2026-05-04
228487,2026-05,TAMPINES,5 ROOM,154,SIMEI ST 1,07 TO 09,122.0,Improved,1988,60 years 11 months,775000.0,154 SIMEI ST 1,520154,1.344806925422064,103.9569966419263,2026-05-04
228403,2026-05,TAMPINES,4 ROOM,620A,TAMPINES ST 61,10 TO 12,93.0,Model A,2021,94 years 06 months,780000.0,620A TAMPINES ST 61,521620,1.361409893256154,103.9388550088543,2026-05-04
228390,2026-05,TAMPINES,4 ROOM,497C,TAMPINES ST 45,07 TO 09,102.0,Premium Apartment,1996,69 years 02 months,683888.0,497C TAMPINES ST 45,522497,1.358252251748731,103.9583673603048,2026-05-04
228284,2026-05,TAMPINES,4 ROOM,519A,TAMPINES CTRL 8,13 TO 15,83.0,DBSS,2014,87 years 02 months,860000.0,519A TAMPINES CTRL 8,521519,1.357275944613935,103.9403816003535,2026-05-04
228217,2026-05,TAMPINES,4 ROOM,231,SIMEI ST 4,04 TO 06,104.0,Model A,1989,62 years,640000.0,231 SIMEI ST 4,520231,1.343609601480998,103.9569034523633,2026-05-04
226291,2026-05,PASIR RIS,EXECUTIVE,645,PASIR RIS DR 10,04 TO 06,148.0,Apartment,1995,68 years 05 months,860000.0,645 PASIR RIS DR 10,510645,1.378419649036811,103.9377904799946,2026-05-04
226224,2026-05,PASIR RIS,5 ROOM,115,PASIR RIS ST 11,01 TO 03,128.0,Improved,1989,61 years 11 months,685000.0,115 PASIR RIS ST 11,510115,1.368926570295379,103.9548705710764,2026-05-04
222184,2026-05,ANG MO KIO,3 ROOM,538,ANG MO KIO AVE 5,01 TO 03,68.0,New Generation,1980,52 years 10 months,390000.0,538 ANG MO KIO AVE 5,560538,1.375593366781081,103.8533478011035,2026-05-04
223234,2026-05,BUKIT BATOK,4 ROOM,449A,BT BATOK WEST AVE 9,01 TO 03,93.0,Model A,2019,91 years 11 months,609000.0,449A BT BATOK WEST AVE 9,651449,1.35234861922854,103.7415101811793,2026-05-04
223937,2026-05,BUKIT PANJANG,EXECUTIVE,467,SEGAR RD,01 TO 03,132.0,Premium Apartment,2002,75 years,678000.0,467 SEGAR RD,670467,1.386982434157017,103.7737884557556,2026-05-04
223912,2026-05,BUKIT PANJANG,5 ROOM,608,SENJA RD,07 TO 09,110.0,Improved,2001,74 years 08 months,708000.0,608 SENJA RD,670608,1.382901975751742,103.7613682236073,2026-05-04
223861,2026-05,BUKIT PANJANG,5 ROOM,442D,FAJAR RD,10 TO 12,113.0,Improved,2016,89 years 08 months,750388.0,442D FAJAR RD,674442,1.380921471693023,103.7708407391106,2026-05-04
223808,2026-05,BUKIT PANJANG,4 ROOM,461,SEGAR RD,01 TO 03,93.0,Premium Apartment,2015,88 years 04 months,558000.0,461 SEGAR RD,670461,1.386974344841613,103.7712800599547,2026-05-04
223759,2026-05,BUKIT PANJANG,4 ROOM,509,JELAPANG RD,01 TO 03,93.0,Model A2,1998,71 years 01 month,520000.0,509 JELAPANG RD,670509,1.386627039010633,103.7690216176401,2026-05-04
223739,2026-05,BUKIT PANJANG,4 ROOM,417,FAJAR RD,01 TO 03,111.0,Model A,1989,61 years 10 months,532000.0,417 FAJAR RD,670417,1.383944332752383,103.7680931788155,2026-05-04
223708,2026-05,BUKIT PANJANG,3 ROOM,633D,SENJA RD,07 TO 09,67.0,Model A,2013,86 years 08 months,500000.0,633D SENJA RD,674633,1.384611897145515,103.7596026751064,2026-05-04
223614,2026-05,BUKIT MERAH,4 ROOM,27,TELOK BLANGAH WAY,04 TO 06,82.0,Improved,1976,49 years,482000.0,27 TELOK BLANGAH WAY,90027,1.27446866093398,103.8214740878994,2026-05-04
223574,2026-05,BUKIT MERAH,4 ROOM,75C,REDHILL RD,10 TO 12,100.0,Model A,2007,79 years 09 months,1110000.0,75C REDHILL RD,153075,1.289023142901041,103.8162760161663,2026-05-04
223562,2026-05,BUKIT MERAH,4 ROOM,126C,KIM TIAN RD,19 TO 21,93.0,Model A,2013,85 years 10 months,978000.0,126C KIM TIAN RD,163126,1.282313700274991,103.8293115036142,2026-05-04
223429,2026-05,BUKIT MERAH,3 ROOM,138,JLN BT MERAH,01 TO 03,59.0,Improved,1983,56 years 04 months,400000.0,138 JLN BT MERAH,160138,1.27842357024922,103.8262375909422,2026-05-04
223337,2026-05,BUKIT BATOK,5 ROOM,467B,BT BATOK WEST AVE 9,16 TO 18,113.0,Improved,2021,94 years 03 months,848000.0,467B BT BATOK WEST AVE 9,652467,1.35614011912777,103.7431637852842,2026-05-04
223259,2026-05,BUKIT BATOK,5 ROOM,296C,BT BATOK ST 22,10 TO 12,115.0,Premium Apartment,2018,90 years 11 months,938000.0,296C BT BATOK ST 22,653296,1.343697966746936,103.7481581344062,2026-05-04
223200,2026-05,BUKIT BATOK,4 ROOM,464B,BT BATOK WEST AVE 8,07 TO 09,93.0,Model A,2021,94 years 03 months,650000.0,464B BT BATOK WEST AVE 8,652464,1.3579967815657,103.7421021659275,2026-05-04
226055,2026-05,MARINE PARADE,3 ROOM,34,MARINE CRES,01 TO 03,59.0,Improved,1975,48 years 01 month,405000.0,34 MARINE CRES,440034,1.304149640025478,103.9121239666986,2026-05-04
223154,2026-05,BUKIT BATOK,4 ROOM,453A,BT BATOK WEST AVE 6,19 TO 21,93.0,Model A,2019,91 years 11 months,690000.0,453A BT BATOK WEST AVE 6,651453,1.352274883054454,103.7422532605123,2026-05-04
223078,2026-05,BUKIT BATOK,4 ROOM,296B,BT BATOK ST 22,25 TO 27,92.0,Premium Apartment,2018,90 years 11 months,848000.0,296B BT BATOK ST 22,652296,1.343693814170792,103.7473568021437,2026-05-04
222986,2026-05,BUKIT BATOK,3 ROOM,533,BT BATOK ST 51,07 TO 09,69.0,Improved,1988,60 years 10 months,395000.0,533 BT BATOK ST 51,650533,1.355879086990498,103.749799126312,2026-05-04
222952,2026-05,BUKIT BATOK,3 ROOM,206,BT BATOK ST 21,04 TO 06,73.0,Model A,1983,56 years 07 months,433000.0,206 BT BATOK ST 21,650206,1.346671926027469,103.7493834738317,2026-05-04
222946,2026-05,BUKIT BATOK,3 ROOM,248,BT BATOK EAST AVE 5,01 TO 03,73.0,Model A,1985,58 years 03 months,423000.0,248 BT BATOK EAST AVE 5,650248,1.35025884075015,103.7566047240246,2026-05-04
222938,2026-05,BUKIT BATOK,3 ROOM,265,BT BATOK EAST AVE 4,10 TO 12,67.0,New Generation,1985,58 years 07 months,390000.0,265 BT BATOK EAST AVE 4,650265,1.350008401924408,103.7598628337814,2026-05-04
222804,2026-05,BISHAN,4 ROOM,113,BISHAN ST 12,10 TO 12,105.0,Model A,1986,58 years 09 months,850000.0,113 BISHAN ST 12,570113,1.347231850957299,103.8488089888749,2026-05-04
222757,2026-05,BEDOK,EXECUTIVE,634,BEDOK RESERVOIR RD,04 TO 06,143.0,Apartment,1993,65 years 11 months,1058000.0,634 BEDOK RESERVOIR RD,410634,1.330167401055756,103.9048492919491,2026-05-04
222566,2026-05,BEDOK,4 ROOM,182,BEDOK NTH RD,01 TO 03,92.0,Model A,2006,78 years 10 months,720000.0,182 BEDOK NTH RD,460182,1.326869940525688,103.9418327975554,2026-05-04
222508,2026-05,BEDOK,3 ROOM,50,CHAI CHEE ST,10 TO 12,68.0,New Generation,1981,54 years 03 months,388888.0,50 CHAI CHEE ST,461050,1.329304314165374,103.9224158073286,2026-05-04
222478,2026-05,BEDOK,3 ROOM,617,BEDOK RESERVOIR RD,04 TO 06,60.0,Improved,1986,58 years 10 months,375000.0,617 BEDOK RESERVOIR RD,470617,1.333127577818972,103.9165117439294,2026-05-04
222376,2026-05,BEDOK,3 ROOM,423,BEDOK NTH AVE 1,01 TO 03,67.0,New Generation,1979,51 years 09 months,375000.0,423 BEDOK NTH AVE 1,460423,1.327976141185119,103.9275651107631,2026-05-04
222256,2026-05,ANG MO KIO,4 ROOM,637,ANG MO KIO AVE 6,04 TO 06,92.0,New Generation,1980,53 years 05 months,570888.0,637 ANG MO KIO AVE 6,560637,1.380361872353171,103.8423346165772,2026-05-04
224002,2026-05,CENTRAL AREA,4 ROOM,1C,CANTONMENT RD,10 TO 12,94.0,Type S1,2011,83 years 09 months,1175000.0,1C CANTONMENT RD,85301,1.277449093870789,103.8416666796505,2026-05-04
224007,2026-05,CENTRAL AREA,4 ROOM,642,ROWELL RD,10 TO 12,103.0,Model A,1984,56 years 09 months,780000.0,642 ROWELL RD,200642,1.307780514370616,103.8564952499438,2026-05-04
224222,2026-05,CHOA CHU KANG,5 ROOM,808B,CHOA CHU KANG AVE 1,07 TO 09,112.0,Improved,2017,90 years,730000.0,808B CHOA CHU KANG AVE 1,682808,1.375592498109116,103.7460213303997,2026-05-04
224279,2026-05,CHOA CHU KANG,5 ROOM,658,CHOA CHU KANG CRES,04 TO 06,125.0,Premium Apartment,1999,72 years,610000.0,658 CHOA CHU KANG CRES,680658,1.400754187789544,103.7492599840544,2026-05-04
225888,2026-05,KALLANG/WHAMPOA,3 ROOM,77,LOR LIMAU,01 TO 03,59.0,Improved,1973,46 years 03 months,335000.0,77 LOR LIMAU,,1.325045675834736,103.8547627079542,2026-05-04
225848,2026-05,KALLANG/WHAMPOA,3 ROOM,10C,BENDEMEER RD,04 TO 06,68.0,Model A,2017,90 years 08 months,750000.0,10C BENDEMEER RD,333010,1.315842361970177,103.860644539729,2026-05-04
225775,2026-05,JURONG WEST,5 ROOM,138B,YUAN CHING RD,16 TO 18,108.0,DBSS,2014,87 years 05 months,958888.0,138B YUAN CHING RD,612138,1.32841510984309,103.7243041477644,2026-05-04
225685,2026-05,JURONG WEST,5 ROOM,552,JURONG WEST ST 42,07 TO 09,133.0,Model A,1984,57 years 06 months,680000.0,552 JURONG WEST ST 42,640552,1.352752905320961,103.7177634346142,2026-05-04
225655,2026-05,JURONG WEST,5 ROOM,273B,JURONG WEST AVE 3,13 TO 15,111.0,Improved,2001,74 years 08 months,550000.0,273B JURONG WEST AVE 3,642273,1.351556336506909,103.7036274881888,2026-05-04
225633,2026-05,JURONG WEST,4 ROOM,166B,YUNG KUANG RD,10 TO 12,93.0,Model A,2018,91 years 06 months,650000.0,166B YUNG KUANG RD,612166,1.331246577243919,103.7222558448937,2026-05-04
225600,2026-05,JURONG WEST,4 ROOM,952,JURONG WEST ST 91,04 TO 06,105.0,Model A,1989,61 years 11 months,510000.0,952 JURONG WEST ST 91,640952,1.342537789394043,103.6914381309508,2026-05-04
225585,2026-05,JURONG WEST,4 ROOM,813,JURONG WEST ST 81,07 TO 09,104.0,Model A,1990,62 years 10 months,512000.0,813 JURONG WEST ST 81,640813,1.34598386230772,103.6958294461894,2026-05-04
225554,2026-05,JURONG WEST,4 ROOM,617,JURONG WEST ST 65,07 TO 09,85.0,Model A2,2000,73 years 07 months,510000.0,617 JURONG WEST ST 65,640617,1.340925649535853,103.7005613531977,2026-05-04
225351,2026-05,JURONG WEST,3 ROOM,208,BOON LAY PL,19 TO 21,65.0,Improved,1976,49 years 07 months,368000.0,208 BOON LAY PL,640208,1.347003673670845,103.7142164135844,2026-05-04
225290,2026-05,JURONG EAST,5 ROOM,404,PANDAN GDNS,04 TO 06,104.0,Standard,1979,52 years,520000.0,404 PANDAN GDNS,600404,1.319816612867986,103.7492833190214,2026-05-04
225281,2026-05,JURONG EAST,5 ROOM,288D,JURONG EAST ST 21,04 TO 06,123.0,Improved,2000,73 years 01 month,855000.0,288D JURONG EAST ST 21,604288,1.339721490488204,103.744090047822,2026-05-04
225049,2026-05,HOUGANG,4 ROOM,477A,UPP SERANGOON VIEW,10 TO 12,92.0,Premium Apartment,2016,88 years 11 months,780000.0,477A UPP SERANGOON VIEW,531477,1.378308758207419,103.9038419579059,2026-05-04
225039,2026-05,HOUGANG,4 ROOM,471B,UPP SERANGOON CRES,07 TO 09,92.0,Model A,2015,88 years 01 month,686000.0,471B UPP SERANGOON CRES,532471,1.378010012627674,103.901070789874,2026-05-04
224970,2026-05,HOUGANG,4 ROOM,629,HOUGANG AVE 8,07 TO 09,104.0,Model A,1986,59 years 03 months,616000.0,629 HOUGANG AVE 8,530629,1.369954124415937,103.8812179309604,2026-05-04
224799,2026-05,HOUGANG,3 ROOM,110,HOUGANG AVE 1,07 TO 09,67.0,New Generation,1982,55 years 06 months,445000.0,110 HOUGANG AVE 1,530110,1.354805424248316,103.8896145852647,2026-05-04
224745,2026-05,GEYLANG,5 ROOM,417,EUNOS RD 5,04 TO 06,142.0,Model A-Maisonette,1984,57 years 06 months,988000.0,417 EUNOS RD 5,400417,1.318072850756943,103.8970875012932,2026-05-04
224733,2026-05,GEYLANG,4 ROOM,352,UBI AVE 1,07 TO 09,104.0,Model A,1989,61 years 10 months,625000.0,352 UBI AVE 1,400352,1.325227018070495,103.8994002264992,2026-05-04
224634,2026-05,GEYLANG,3 ROOM,93,PAYA LEBAR WAY,07 TO 09,58.0,Improved,1972,45 years 05 months,360000.0,93 PAYA LEBAR WAY,370093,1.322734769227474,103.8881031962563,2026-05-04
224632,2026-05,GEYLANG,3 ROOM,99,OLD AIRPORT RD,04 TO 06,56.0,Standard,1969,41 years 09 months,338000.0,99 OLD AIRPORT RD,390099,1.308589538297574,103.8882448728077,2026-05-04
224544,2026-05,GEYLANG,3 ROOM,97,ALJUNIED CRES,07 TO 09,76.0,Improved,1975,48 years 05 months,390000.0,97 ALJUNIED CRES,380097,1.321301212305621,103.8856720316681,2026-05-04
224521,2026-05,CLEMENTI,5 ROOM,445B,CLEMENTI AVE 3,22 TO 24,113.0,Improved,2021,94 years 03 months,1458000.0,445B CLEMENTI AVE 3,122445,1.312666260447781,103.7646236181265,2026-05-04
224474,2026-05,CLEMENTI,4 ROOM,441B,CLEMENTI AVE 3,07 TO 09,87.0,Model A,2012,85 years 03 months,1160000.0,441B CLEMENTI AVE 3,122441,1.314576215429543,103.7641588837875,2026-05-04
224416,2026-05,CLEMENTI,3 ROOM,341,CLEMENTI AVE 5,07 TO 09,67.0,New Generation,1979,52 years,430000.0,341 CLEMENTI AVE 5,120341,1.319120530860052,103.7690577165349,2026-05-04
224384,2026-05,CLEMENTI,3 ROOM,330,CLEMENTI AVE 2,07 TO 09,67.0,New Generation,1978,51 years 03 months,455000.0,330 CLEMENTI AVE 2,120330,1.313744705110618,103.7677818246314,2026-05-04
224371,2026-05,CLEMENTI,3 ROOM,421,CLEMENTI AVE 1,19 TO 21,73.0,Model A,2013,86 years 05 months,650000.0,421 CLEMENTI AVE 1,120421,1.309097987029078,103.7683559130534,2026-05-04
224292,2026-05,CHOA CHU KANG,5 ROOM,632,CHOA CHU KANG NTH 6,07 TO 09,127.0,Premium Apartment,1998,70 years 09 months,720000.0,632 CHOA CHU KANG NTH 6,680632,1.396691112158075,103.7485797281454,2026-05-04
230183,2026-05,YISHUN,MULTI-GENERATION,666,YISHUN AVE 4,04 TO 06,164.0,Multi Generation,1987,60 years 08 months,1120000.0,666 YISHUN AVE 4,760666,1.418998472132827,103.8405680024973,2026-05-04
